property_url,mls,mls_id,status,style,street,unit,city,state,zip_code,beds,full_baths,half_baths,sqft,year_built,days_on_mls,list_price,list_date,sold_price,last_sold_date,lot_sqft,price_per_sqft,latitude,longitude,stories,hoa_fee,parking_garage
https://www.realtor.com/realestateandhomes-detail/1434660177,SDCA,230022788,FOR_SALE,CONDOS,4170  Mount Alifan Pl,Unit C,San Diego,CA,92111,2,1,,863,1973,,479900,2023-11-21,292000,2019-08-05,,556,32.816513,-117.179159,1,495,
https://www.realtor.com/realestateandhomes-detail/2541719986,MRCA,PTP2305754,FOR_SALE,SINGLE_FAMILY,1355  Willow St,,San Diego,CA,92106,5,6,,4662,1948,,1999000,2023-11-21,1275000,2019-08-16,5184,429,32.726266,-117.232052,2,0,2
https://www.realtor.com/realestateandhomes-detail/1661951577,SDCA,230022781,FOR_SALE,CONDOS,2817  Via Alta Pl,,San Diego,CA,92108,4,4,,2188,2018,,1759000,2023-11-21,1020000,2018-12-12,296208,804,32.78317,-117.145065,3,289,2
https://www.realtor.com/realestateandhomes-detail/9146572312,SDCA,230022771,FOR_SALE,LAND,1950  Kearney Ave,Unit 538-290,San Diego,CA,92113,,,,,,0,1495000,2023-11-20,,,4925,,32.701912,-117.142532,,0,
https://www.realtor.com/realestateandhomes-detail/1977585186,SDCA,230022770,FOR_SALE,CONDOS,1621  Hotel Cir,Unit E208,San Diego,CA,92108,1,1,,700,1972,0,429900,2023-11-20,,,,614,32.757867,-117.178492,1,429,1
https://www.realtor.com/realestateandhomes-detail/1297942103,SDCA,230022768,FOR_SALE,CONDOS,1050  Island Ave,Unit 407,San Diego,CA,92101,2,2,,1172,2005,0,899000,2023-11-20,535000,2013-03-27,,767,32.710841,-117.155108,1,536,2
https://www.realtor.com/realestateandhomes-detail/1258576091,SDCA,230022764,FOR_SALE,TOWNHOMES,2483  Tosca Way,,San Diego,CA,92111,2,1,,792,1972,0,500000,2023-11-20,55900,1979-08-02,,631,32.789086,-117.180646,1,340,
https://www.realtor.com/realestateandhomes-detail/1344100389,SDCA,230022762,FOR_SALE,CONDOS,721  9th Ave,Unit 4,San Diego,CA,92101,2,2,,1010,1999,0,774900,2023-11-20,615000,2021-07-30,,767,32.71283,-117.156027,2,305,1
https://www.realtor.com/realestateandhomes-detail/2533726214,SDCA,230022760,FOR_SALE,CONDOS,3605  Ash St,Unit 13,San Diego,CA,92105,2,2,,824,1987,0,450000,2023-11-20,290000,2017-05-10,300564,546,32.718867,-117.115441,1,534,
https://www.realtor.com/realestateandhomes-detail/1408049818,SDCA,230022756,FOR_SALE,SINGLE_FAMILY,17256  Tablero Pl,,San Diego,CA,92127,5,3,,2160,1971,0,875000,2023-11-20,,,8600,405,33.028583,-117.090173,2,47,2
https://www.realtor.com/realestateandhomes-detail/2734775789,MRCA,PTP2305740,FOR_SALE,MULTI_FAMILY,2946-56  Vancouver Ave,,San Diego,CA,92104,,,,2065,1951,0,1700000,2023-11-20,,,6417,823,32.736484,-117.11672,,0,3
https://www.realtor.com/realestateandhomes-detail/2229245245,SDCA,230022753,FOR_SALE,SINGLE_FAMILY,5878  Parkmead Ct,,San Diego,CA,92114,4,2,,1289,1987,0,669000,2023-11-20,94000,1987-03-26,,519,32.699505,-117.070952,1,0,2
https://www.realtor.com/realestateandhomes-detail/1563976819,SDCA,230022751,FOR_SALE,CONDOS,8850  Villa La Jolla Dr,Unit 101,La Jolla,CA,92037,2,2,,1426,1981,0,999000,2023-11-20,419000,2003-07-25,,701,32.86932,-117.235414,1,663,2
https://www.realtor.com/realestateandhomes-detail/1461861839,SDCA,230022747,FOR_SALE,CONDOS,17452  Plaza Animado,Unit 120,San Diego,CA,92128,2,2,,1431,1973,0,595000,2023-11-20,345000,2016-06-08,298822,416,33.028236,-117.053381,1,450,
https://www.realtor.com/realestateandhomes-detail/1966023176,SDCA,230022746,FOR_SALE,CONDOS,700 W E St,Unit 3404,San Diego,CA,92101,2,2,,993,2007,0,950000,2023-11-20,825000,2021-12-15,,957,32.715121,-117.16958,1,1415,1
https://www.realtor.com/realestateandhomes-detail/2884612333,SDCA,230022745,FOR_SALE,TOWNHOMES,7854  Hummingbird Ln,,San Diego,CA,92123,4,2,1,1454,1975,0,785000,2023-11-20,220000,2001-06-05,,540,32.791979,-117.155,3,410,2
https://www.realtor.com/realestateandhomes-detail/1465531540,MRCA,PTP2305662,FOR_SALE,SINGLE_FAMILY,4233  Lemonseed Dr,,San Diego,CA,92154,5,4,1,2731,1971,0,895000,2023-11-20,54000,1977-08-09,6300,328,32.584,-117.042265,2,0,2
https://www.realtor.com/realestateandhomes-detail/1126481502,SDCA,230022741,FOR_SALE,CONDOS,4050  46th St,Unit 18,San Diego,CA,92105,1,1,,540,1978,1,350000,2023-11-19,220000,2019-08-30,,648,32.750505,-117.095793,1,300,
https://www.realtor.com/realestateandhomes-detail/1614465873,SDCA,230022738,FOR_SALE,SINGLE_FAMILY,12791  Calma Ct,,San Diego,CA,92128,5,3,,2359,1973,1,1375000,2023-11-19,52500,1977-03-24,8200,583,33.019643,-117.053634,2,51,2
https://www.realtor.com/realestateandhomes-detail/1207966678,SDCA,230022736,FOR_SALE,CONDOS,988  G St,Unit 30,San Diego,CA,92101,1,1,,640,1999,1,399000,2023-11-19,189500,2011-10-31,,623,32.71283,-117.156027,2,267,
https://www.realtor.com/realestateandhomes-detail/1107055276,MRCA,PTP2305734,FOR_SALE,CONDOS,6209  Caminito Araya,,San Diego,CA,92122,1,1,1,914,1977,1,599000,2023-11-19,399000,2020-01-07,285675,655,32.85112,-117.204751,2,410,
https://www.realtor.com/realestateandhomes-detail/2328662922,MRCA,OC23213930,FOR_SALE,CONDOS,300 W Beech St,Unit 2206,San Diego,CA,92101,1,1,,624,2004,1,725000,2023-11-19,,,60117,1162,32.721426,-117.166048,1,570,1
https://www.realtor.com/realestateandhomes-detail/2904314644,SDCA,230022728,FOR_SALE,CONDOS,3450  2nd Ave,Unit 37,San Diego,CA,92103,2,2,,1251,1970,1,824000,2023-11-19,435000,2015-04-20,16988,659,32.741117,-117.163386,1,470,1
https://www.realtor.com/realestateandhomes-detail/2098784883,SDCA,230022727,FOR_SALE,MULTI_FAMILY,4951-55  Jumano Ave,,San Diego,CA,92117,10,8,,3600,1968,1,1649000,2023-11-19,40000,1975-03-28,12197,458,32.796609,-117.193966,1,0,9
https://www.realtor.com/realestateandhomes-detail/1749483501,MRCA,SW23213828,FOR_SALE,MULTI_FAMILY,3281-3287  Steel St,,San Diego,CA,92113,21,21,,1304,1932,2,1299900,2023-11-18,400000,2023-03-08,6530,997,32.705313,-117.122772,1,0,
https://www.realtor.com/realestateandhomes-detail/1076826420,MRCA,NDP2308945,FOR_SALE,SINGLE_FAMILY,15445  Artesian Spring Rd,,San Diego,CA,92127,6,5,1,5700,2012,2,5200000,2023-11-18,510000,2011-06-28,48352,912,33.012091,-117.14831,1,390,4
https://www.realtor.com/realestateandhomes-detail/2309739039,SDCA,230022712,FOR_SALE,CONDOS,6848  Panamint Row,Unit 3,San Diego,CA,92139,3,2,,1183,1980,2,585000,2023-11-18,93000,1998-05-22,140699,495,32.682054,-117.043596,2,265,
https://www.realtor.com/realestateandhomes-detail/1974480771,SDCA,230022710,FOR_SALE,SINGLE_FAMILY,14099  Carmel Ridge Rd,,San Diego,CA,92128,4,3,1,2046,1991,2,1375000,2023-11-18,810000,2005-06-23,5994,672,32.975526,-117.07496,2,52,2
https://www.realtor.com/realestateandhomes-detail/1463802786,MRCA,NDP2308943,FOR_SALE,SINGLE_FAMILY,1545  Dale St,,San Diego,CA,92102,3,2,,1473,1911,2,1349000,2023-11-18,,,5110,916,32.722172,-117.130849,1,0,1
https://www.realtor.com/realestateandhomes-detail/1276604584,MRCA,PT23208844,FOR_SALE,SINGLE_FAMILY,354  Los Reyes Dr,,San Diego,CA,92114,4,2,,1788,1961,2,735000,2023-11-18,,,7000,411,32.70757,-117.04747,2,0,2
https://www.realtor.com/realestateandhomes-detail/2983573495,SDCA,230022708,FOR_SALE,SINGLE_FAMILY,4080  Morrell St,,San Diego,CA,92109,3,3,1,1966,2010,2,2049000,2023-11-18,1175000,2017-02-13,2627,1042,32.795353,-117.231889,3,0,2
https://www.realtor.com/realestateandhomes-detail/1616180107,MRCA,NDP2308942,FOR_SALE,CONDOS,16450  Caminito Vecinos,Unit 101,San Diego,CA,92128,2,2,,1372,1973,2,699000,2023-11-18,435000,2020-06-29,341946,509,33.014304,-117.0556,1,485,
https://www.realtor.com/realestateandhomes-detail/2579824000,SDCA,230022704,FOR_SALE,CONDOS,3238  Ashford St,Unit E,San Diego,CA,92111,1,1,,463,1975,2,375000,2023-11-18,56000,2001-01-26,183823,810,32.803132,-117.160278,1,343,
https://www.realtor.com/realestateandhomes-detail/1091836923,MRCA,PTP2305727,FOR_SALE,SINGLE_FAMILY,11184  Camarosa Cir,,San Diego,CA,92126,5,2,,1734,1975,2,1199000,2023-11-18,155500,1996-11-27,6842,691,32.925253,-117.137892,1,0,2
https://www.realtor.com/realestateandhomes-detail/2991452412,SDCA,230022702,FOR_SALE,CONDOS,888 W E St,Unit 1703,San Diego,CA,92101,2,2,,1276,2018,2,1699000,2023-11-18,,,,1332,32.715116,-117.170522,1,1767,2
https://www.realtor.com/realestateandhomes-detail/2098396328,MRCA,PTP2305725,FOR_SALE,SINGLE_FAMILY,4281  Kirkcaldy Dr,,San Diego,CA,92111,3,2,,1056,1961,2,825000,2023-11-18,155000,1990-06-14,6600,781,32.819996,-117.159866,1,0,2
https://www.realtor.com/realestateandhomes-detail/1671322329,SDCA,230022695,FOR_SALE,SINGLE_FAMILY,11230  Madrigal St,,San Diego,CA,92129,4,2,1,2376,1970,2,899000,2023-11-18,,,9200,378,32.990657,-117.086383,2,0,2
https://www.realtor.com/realestateandhomes-detail/1303269878,SDCA,230022691,FOR_SALE,CONDOS,14912  Avenida Venusto,Unit 3,San Diego,CA,92128,1,1,,708,1988,2,500000,2023-11-18,280000,2005-04-29,,706,32.99054,-117.069406,1,372,
https://www.realtor.com/realestateandhomes-detail/2454046586,MRCA,PTP2305722,FOR_SALE,LAND,1515  Republic St,,San Diego,CA,92114,,,,,,2,215000,2023-11-18,125000,2018-05-02,11417,,32.719976,-117.064427,,0,
https://www.realtor.com/realestateandhomes-detail/1668561470,SDCA,230022681,FOR_SALE,TOWNHOMES,3024  Caminito Niquel,,San Diego,CA,92117,3,3,,1501,1978,2,895000,2023-11-18,207000,1998-01-28,440392,596,32.825175,-117.222565,2,300,2
https://www.realtor.com/realestateandhomes-detail/2391721636,SDCA,230022678,FOR_SALE,SINGLE_FAMILY,2765  Cordoba Cv,,Del Mar,CA,92014,4,2,,1665,1971,2,1695000,2023-11-18,54000,1979-03-23,25600,1018,32.945239,-117.245004,1,0,3
https://www.realtor.com/realestateandhomes-detail/1887012864,SDCA,230022677,FOR_SALE,SINGLE_FAMILY,2779  Cordoba Cv,,Del Mar,CA,92014,3,2,,1527,1971,2,1545000,2023-11-18,905000,2005-05-31,9600,1012,32.945205,-117.244589,1,0,2
https://www.realtor.com/realestateandhomes-detail/9013900177,LC1B,110600093,FOR_SALE,SINGLE_FAMILY,2112  Senita Dr,,San Diego,CA,92154,3,3,,1385,,2,537900,2023-11-18,,,,388,,,2,,2
https://www.realtor.com/realestateandhomes-detail/9728519835,LC1B,110600022,FOR_SALE,SINGLE_FAMILY,2135  Reed Dr,,San Diego,CA,92154,3,3,1,1643,,2,600900,2023-11-18,,,,366,,,3,,2
https://www.realtor.com/realestateandhomes-detail/2491855223,SDCA,230022675,FOR_SALE,TOWNHOMES,12646  Carmel Country Rd,Unit 158,San Diego,CA,92130,2,2,1,1050,1991,3,879000,2023-11-17,500000,2017-12-11,,837,32.950675,-117.229924,2,525,2
https://www.realtor.com/realestateandhomes-detail/1830276064,SDCA,230022673,FOR_SALE,SINGLE_FAMILY,3904  T St,,San Diego,CA,92113,4,2,,1342,1971,3,739900,2023-11-17,,,5200,551,32.699085,-117.110159,1,0,2
https://www.realtor.com/realestateandhomes-detail/2500001575,SDCA,230022672,FOR_SALE,CONDOS,5075  Narragansett Ave,Unit 109,San Diego,CA,92107,1,1,,550,1980,3,674900,2023-11-17,215000,2012-10-31,,1227,32.745733,-117.254017,1,434,
https://www.realtor.com/realestateandhomes-detail/1041179759,SDCA,230022670,FOR_SALE,CONDOS,5440  LA Jolla Blvd,Unit E208,La Jolla,CA,92037,1,1,1,1394,2005,3,1575000,2023-11-17,1275000,2022-08-22,59242,1130,32.811268,-117.267541,1,607,2
https://www.realtor.com/realestateandhomes-detail/9958540672,MRCA,NDP2308928,FOR_SALE,CONDOS,5226  Grand Del Mar Way,,San Diego,CA,92130,3,5,,5035,2008,3,350000,2023-11-17,,,125888,70,,,2,1513,3
https://www.realtor.com/realestateandhomes-detail/2020920433,SDCA,230022666,FOR_SALE,SINGLE_FAMILY,5011  Millwood Rd,,San Diego,CA,92117,3,2,,1098,1958,3,1000000,2023-11-17,415000,2004-04-20,6000,911,32.836894,-117.19453,1,0,2
https://www.realtor.com/realestateandhomes-detail/1633087441,MRCA,OC23213378,FOR_SALE,SINGLE_FAMILY,4605  Yerba Santa Dr,,San Diego,CA,92115,8,12,,15000,2000,3,4950000,2023-11-17,,,89734,330,32.776334,-117.096371,2,160,3
https://www.realtor.com/realestateandhomes-detail/2210760696,MRCA,PTP2305711,FOR_SALE,SINGLE_FAMILY,8011  Solana St,,San Diego,CA,92114,3,2,,1025,1953,3,699900,2023-11-17,203000,2010-12-30,6000,683,32.716201,-117.031492,1,0,
https://www.realtor.com/realestateandhomes-detail/2633626210,SDCA,230022660,FOR_SALE,CONDOS,830  Isthmus Ct,Unit B,San Diego,CA,92109,3,2,1,1523,1986,3,1749999,2023-11-17,1380000,2022-04-01,,1149,32.773273,-117.250549,2,0,
https://www.realtor.com/realestateandhomes-detail/9219584450,SDCA,230022658,FOR_SALE,CONDOS,207  5th Ave,Unit 736,San Diego,CA,92101,0,1,,431,2008,3,295000,2023-11-17,,,52708,684,32.707745,-117.159615,1,837,
https://www.realtor.com/realestateandhomes-detail/1257772687,SDCA,230022657,FOR_SALE,CONDOS,207  5th Ave,Unit 737,San Diego,CA,92101,0,1,,401,2008,3,450000,2023-11-17,553000,2007-11-21,52708,1122,32.707767,-117.159616,1,837,
https://www.realtor.com/realestateandhomes-detail/1993818616,SDCA,230022654,FOR_SALE,SINGLE_FAMILY,4760  Cannington Dr,,San Diego,CA,92117,5,3,,2348,1976,3,1699990,2023-11-17,950000,2023-03-31,5000,724,32.829047,-117.168194,2,0,2
https://www.realtor.com/realestateandhomes-detail/2201428557,SDCA,230022652,FOR_SALE,SINGLE_FAMILY,3668  Leland St,,San Diego,CA,92106,3,2,,1820,1960,3,1495000,2023-11-17,970000,2018-05-23,6536,821,32.749405,-117.219277,1,0,2
https://www.realtor.com/realestateandhomes-detail/1088303108,SDCA,230022651,FOR_SALE,CONDOS,1021  Scott St,Apt 224,San Diego,CA,92106,0,1,,267,1980,3,417000,2023-11-17,330000,2021-12-17,,1562,32.719664,-117.231016,1,361,1
https://www.realtor.com/realestateandhomes-detail/1813122358,SDCA,230022649,FOR_SALE,SINGLE_FAMILY,2232  Valner Ct,,San Diego,CA,92139,3,2,,1050,1961,3,769900,2023-11-17,125000,1996-04-30,,733,32.679954,-117.057444,1,0,2
https://www.realtor.com/realestateandhomes-detail/1980517823,MRCA,PTP2305703,FOR_SALE,CONDOS,4875  Collwood Blvd,Unit A,San Diego,CA,92115,2,2,,971,1970,3,510000,2023-11-17,291000,2004-04-05,196891,525,32.767379,-117.082822,1,490,1
https://www.realtor.com/realestateandhomes-detail/2406802940,MRCA,NDP2308922,FOR_SALE,SINGLE_FAMILY,4787  Castle Ave,,San Diego,CA,92105,2,1,,744,1932,3,570000,2023-11-17,,,4871,766,32.745002,-117.091844,1,0,
https://www.realtor.com/realestateandhomes-detail/2098705828,SDCA,230022646,FOR_SALE,CONDOS,8155  Via Mallorca,,La Jolla,CA,92037,2,2,,984,1976,3,795000,2023-11-17,165000,1996-02-20,,808,32.854622,-117.234974,1,410,2
https://www.realtor.com/realestateandhomes-detail/1267536057,MRCA,ND23213242,FOR_SALE,CONDOS,6025  Estelle St,Unit 8,San Diego,CA,92115,2,2,,953,1989,3,529900,2023-11-17,252500,2015-07-27,18069,556,32.758234,-117.067473,1,285,2
https://www.realtor.com/realestateandhomes-detail/1211825004,SDCA,230022643,FOR_SALE,SINGLE_FAMILY,1008  27th St,,San Diego,CA,92154,3,2,,1025,1969,3,699000,2023-11-17,407000,2017-04-20,,682,32.578398,-117.075696,1,0,
https://www.realtor.com/realestateandhomes-detail/2870259166,SDCA,230022641,FOR_SALE,CONDOS,2610  Torrey Pines Rd,Apt C32,La Jolla,CA,92037,2,2,,1204,1966,3,849900,2023-11-17,565000,2017-04-21,,706,32.852002,-117.247423,1,623,1
https://www.realtor.com/realestateandhomes-detail/2481159867,SDCA,230022638,FOR_SALE,SINGLE_FAMILY,4645  Santa Monica Ave,,San Diego,CA,92107,4,4,,3000,1933,3,2495000,2023-11-17,1000000,2019-08-30,6981,832,32.743696,-117.244416,3,0,1
https://www.realtor.com/realestateandhomes-detail/1003442107,SDCA,230022635,FOR_SALE,SINGLE_FAMILY,8324  Teresa Dr,,San Diego,CA,92126,4,2,,1406,1979,3,1049900,2023-11-17,370000,2011-10-31,,747,32.925236,-117.144457,1,0,2
https://www.realtor.com/realestateandhomes-detail/1720177949,SDCA,230022634,FOR_SALE,SINGLE_FAMILY,6728  Richard St,,San Diego,CA,92115,3,2,,1800,1953,3,975000,2023-11-17,127000,1997-11-10,4900,542,32.773941,-117.052866,1,0,2
https://www.realtor.com/realestateandhomes-detail/1478892344,SDCA,230022632,FOR_SALE,CONDOS,10225  Caminito Cuervo,Unit 131,San Diego,CA,92108,1,1,1,868,1978,3,585000,2023-11-17,,,,674,32.787705,-117.112298,1,420,
https://www.realtor.com/realestateandhomes-detail/2642844622,SDCA,230022631,FOR_SALE,CONDOS,700 W E St,Unit 302,San Diego,CA,92101,1,1,,827,2007,3,570000,2023-11-17,450000,2020-04-27,51836,689,32.715121,-117.16958,2,1415,1
https://www.realtor.com/realestateandhomes-detail/1847083004,SDCA,230022630,FOR_SALE,SINGLE_FAMILY,620 S Gregory St,,San Diego,CA,92113,3,2,,1125,1953,3,699000,2023-11-17,,,,621,32.699926,-117.121946,1,0,
https://www.realtor.com/realestateandhomes-detail/1771914450,SDCA,230022629,FOR_SALE,MULTI_FAMILY,4629-4629  1/2 32nd St,,San Diego,CA,92116,2,2,,1014,1924,3,999000,2023-11-17,477500,2015-10-14,3236,985,32.761742,-117.124692,1,0,1
https://www.realtor.com/realestateandhomes-detail/1268517874,SDCA,230022627,FOR_SALE,SINGLE_FAMILY,7460  Jamacha Rd,,San Diego,CA,92114,4,2,,1300,1951,3,778000,2023-11-17,10000,1975-09-23,7200,598,32.711741,-117.038863,1,0,
https://www.realtor.com/realestateandhomes-detail/2965207194,MRCA,NDP2308915,FOR_SALE,CONDOS,3795  Georgia St,Apt 402,San Diego,CA,92103,2,2,,1003,1990,3,685000,2023-11-17,652500,2022-06-27,15995,683,32.747242,-117.144617,1,442,2
https://www.realtor.com/realestateandhomes-detail/1480606608,SDCA,230022620,FOR_SALE,SINGLE_FAMILY,17484  Plaza Del Curtidor,Unit 178,San Diego,CA,92128,2,2,,1455,1973,3,699000,2023-11-17,124000,1987-08-10,,480,33.02957,-117.054777,1,452,
https://www.realtor.com/realestateandhomes-detail/2637762729,SDCA,230022619,FOR_SALE,SINGLE_FAMILY,810  Vanitie Ct,,San Diego,CA,92109,2,1,,635,1927,3,1375000,2023-11-17,1200000,2021-04-02,1289,2165,32.786882,-117.253159,1,,
https://www.realtor.com/realestateandhomes-detail/1602819272,MRCA,NDP2308911,FOR_SALE,CONDOS,2814  Terrace Pine Dr,Unit C,San Ysidro,CA,92173,2,1,,903,1977,3,399000,2023-11-17,110000,2008-08-29,,442,32.568709,-117.072948,2,300,1
https://www.realtor.com/realestateandhomes-detail/1575736500,SDCA,230022617,FOR_SALE,CONDOS,10325  Caminito Cuervo,Unit 170,San Diego,CA,92108,2,2,,1037,1978,3,599000,2023-11-17,340000,2017-03-14,74923,578,32.787252,-117.112606,3,400,
https://www.realtor.com/realestateandhomes-detail/2517755053,SDCA,230022615,FOR_SALE,TOWNHOMES,4160  Via Candidiz,Unit 197,San Diego,CA,92130,3,2,1,1206,1995,3,1099000,2023-11-17,170000,1997-02-28,,911,32.950544,-117.226553,2,240,2
https://www.realtor.com/realestateandhomes-detail/1552406676,SDCA,230022614,FOR_SALE,CONDOS,6675  Mission Gorge Rd,Unit A112,San Diego,CA,92120,1,1,,626,1976,3,398000,2023-11-17,265000,2021-07-08,77537,636,32.794671,-117.095791,1,324,
https://www.realtor.com/realestateandhomes-detail/1411295073,SDCA,230022610,FOR_SALE,SINGLE_FAMILY,3015  Elm St,,San Diego,CA,92102,2,1,,660,2008,3,800000,2023-11-17,,,2276,1212,32.724302,-117.129807,1,0,
https://www.realtor.com/realestateandhomes-detail/1144877732,SDCA,230022502,FOR_SALE,LAND,8158  Artesian Rd,Unit 8158,San Diego,CA,92127,,,,,,3,2150000,2023-11-17,219000,2007-11-08,217800,,33.019984,-117.15597,,,
https://www.realtor.com/realestateandhomes-detail/2995487621,MRCA,PTP2305694,FOR_SALE,CONDOS,4120  Kansas St,Apt 7,San Diego,CA,92104,1,1,,656,1997,3,449000,2023-11-17,358500,2021-06-03,15760,684,32.752742,-117.131759,1,272,
https://www.realtor.com/realestateandhomes-detail/1971614412,SDCA,230022602,FOR_SALE,TOWNHOMES,6844  Panamint Row,Unit 5,San Diego,CA,92139,3,2,,1183,1980,3,574900,2023-11-17,121500,2013-06-06,,486,32.682054,-117.043596,2,265,
https://www.realtor.com/realestateandhomes-detail/1753378755,SDCA,230022601,FOR_SALE,CONDOS,4851  Cole St,Unit 6,San Diego,CA,92117,3,2,,1188,1968,3,649900,2023-11-17,,,46609,547,32.83408,-117.200905,1,345,
https://www.realtor.com/realestateandhomes-detail/1170087148,MRCA,OC23213012,FOR_SALE,SINGLE_FAMILY,1405  Eboe Ave,,San Diego,CA,92154,4,1,,1588,1959,3,675000,2023-11-17,,,7400,425,32.576943,-117.103557,1,0,
https://www.realtor.com/realestateandhomes-detail/1597139686,MRCA,PTP2305692,FOR_SALE,SINGLE_FAMILY,4175  35th St,,San Diego,CA,92104,3,1,,1158,1924,3,999990,2023-11-17,800000,2021-04-02,6250,864,32.752926,-117.117658,1,0,1
https://www.realtor.com/realestateandhomes-detail/1284409276,MRCA,PTP2305691,FOR_SALE,CONDOS,4222  Menlo Ave,Unit 29,San Diego,CA,92115,2,2,,800,1992,3,465000,2023-11-17,360000,2021-12-20,,581,32.753726,-117.094752,1,350,2
https://www.realtor.com/realestateandhomes-detail/1000125408,SDCA,230022596,FOR_SALE,SINGLE_FAMILY,3585-87  29th St,,San Diego,CA,92104,4,2,1,1538,1920,3,1549000,2023-11-17,290000,1990-08-16,,1007,32.743922,-117.13069,1,0,2
https://www.realtor.com/realestateandhomes-detail/1481415086,SDCA,230022592,FOR_SALE,SINGLE_FAMILY,7545  Dancy Rd,,San Diego,CA,92126,4,3,,1998,1986,3,1325000,2023-11-17,145500,1986-05-19,6283,663,32.906714,-117.163417,2,0,2
https://www.realtor.com/realestateandhomes-detail/2708977946,SDCA,230022587,FOR_SALE,SINGLE_FAMILY,3451  Ottawa Ave,,San Diego,CA,92117,4,2,,1433,1953,3,1399000,2023-11-17,,,10454,976,32.803775,-117.201418,1,0,1
https://www.realtor.com/realestateandhomes-detail/1416549571,SDCA,230022584,FOR_SALE,MULTI_FAMILY,1741  30th St,,San Diego,CA,92102,4,3,,1360,2007,3,1300000,2023-11-17,36000,1990-07-06,,956,32.724203,-117.129894,1,,
https://www.realtor.com/realestateandhomes-detail/1027418599,SDCA,230022583,FOR_SALE,MULTI_FAMILY,2129-2131  B St,,San Diego,CA,92102,4,4,,2176,1950,4,1595000,2023-11-16,1450000,2022-12-07,2739,733,32.717696,-117.144406,2,0,3
https://www.realtor.com/realestateandhomes-detail/2219436109,MRCA,NDP2308896,FOR_SALE,SINGLE_FAMILY,1210  Inspiration Dr,,La Jolla,CA,92037,4,3,1,3474,1990,4,5995000,2023-11-16,2555000,2014-05-28,18731,1726,32.825373,-117.265546,1,0,2
https://www.realtor.com/realestateandhomes-detail/2327873674,SDCA,230022580,FOR_SALE,MULTI_FAMILY,4445  42nd St,,San Diego,CA,92116,4,2,1,1800,1936,4,1299995,2023-11-16,550000,2007-03-27,5868,722,32.758018,-117.104701,1,0,3
https://www.realtor.com/realestateandhomes-detail/1697907437,SDCA,230022578,FOR_SALE,SINGLE_FAMILY,938  57th St,,San Diego,CA,92114,3,2,,1125,1958,4,825000,2023-11-16,,,,733,32.715906,-117.074209,1,0,4
https://www.realtor.com/realestateandhomes-detail/2076425838,SDCA,230022576,FOR_SALE,CONDOS,4667  Ocean Blvd,Unit 408,San Diego,CA,92109,2,2,,862,1973,4,1349000,2023-11-16,1275000,2021-07-08,24394,1565,32.798669,-117.25725,1,605,1
https://www.realtor.com/realestateandhomes-detail/1857812447,SDCA,230022573,FOR_SALE,SINGLE_FAMILY,5315  Canterbury Dr,,San Diego,CA,92116,4,3,,2841,1938,4,2995000,2023-11-16,,,9019,1054,32.774191,-117.10762,2,,2
https://www.realtor.com/realestateandhomes-detail/2703115851,SDCA,230022569,FOR_SALE,SINGLE_FAMILY,8918  Stargaze Ave,,San Diego,CA,92129,4,2,1,1958,1987,4,1500000,2023-11-16,152000,1987-01-05,,766,32.975959,-117.135608,2,0,2
https://www.realtor.com/realestateandhomes-detail/1442448759,SDCA,230022567,FOR_SALE,SINGLE_FAMILY,747  Windemere Ct,,San Diego,CA,92109,2,1,1,990,1973,4,1850000,2023-11-16,927000,2016-11-22,1325,1869,32.788482,-117.25356,2,0,1
https://www.realtor.com/realestateandhomes-detail/1072868527,SDCA,230022556,FOR_SALE,SINGLE_FAMILY,3379  32nd St,,San Diego,CA,92104,3,2,,1475,1970,4,1350000,2023-11-16,955000,2020-05-04,4651,915,32.740825,-117.124735,1,0,
https://www.realtor.com/realestateandhomes-detail/1087650389,SDCA,230022566,FOR_SALE,CONDOS,3635  Ash St,Unit 9,San Diego,CA,92105,2,2,,824,1987,4,450000,2023-11-16,145000,2009-05-21,300564,546,32.718867,-117.115441,1,534,
https://www.realtor.com/realestateandhomes-detail/1360542038,SDCA,230022563,FOR_SALE,CONDOS,8328  Regents Rd,Unit 1J,San Diego,CA,92122,2,2,,894,1985,4,699000,2023-11-16,465000,2018-11-13,61420,782,32.866609,-117.221695,1,471,
https://www.realtor.com/realestateandhomes-detail/2440826744,SDCA,230022560,FOR_SALE,SINGLE_FAMILY,5892  Adelaide Ave,,San Diego,CA,92115,3,2,,1366,1943,4,965000,2023-11-16,650500,2020-04-01,4551,706,32.757817,-117.070417,1,,1
https://www.realtor.com/realestateandhomes-detail/1266313436,SDCA,230022559,FOR_SALE,SINGLE_FAMILY,7852  Corte De Luz,,San Diego,CA,92127,5,6,1,8082,2009,4,8378000,2023-11-16,4435000,2015-08-03,45302,1037,32.988298,-117.147943,1,600,4
https://www.realtor.com/realestateandhomes-detail/1264874066,SDCA,230022557,FOR_SALE,SINGLE_FAMILY,12516  Camino Vuelo,,San Diego,CA,92128,3,2,,1755,1977,4,1199900,2023-11-16,625000,2017-11-22,,684,33.037328,-117.059562,1,16,2
https://www.realtor.com/realestateandhomes-detail/1491639803,SDCA,230022551,FOR_SALE,CONDOS,10225  Caminito Cuervo,Unit 150,San Diego,CA,92108,2,2,,1167,1978,4,630000,2023-11-16,285000,2011-08-04,62330,540,32.787705,-117.112298,1,400,
https://www.realtor.com/realestateandhomes-detail/1050807120,MRCA,PTP2305677,FOR_SALE,SINGLE_FAMILY,8607  Capricorn Way,,San Diego,CA,92126,4,2,,1366,1973,4,975000,2023-11-16,765000,2022-04-21,5000,714,32.923922,-117.138096,1,0,2
https://www.realtor.com/realestateandhomes-detail/1564678543,MRCA,PTP2305676,FOR_SALE,CONDOS,5895  Friars Rd,Apt 5306,San Diego,CA,92110,2,2,,1112,1989,4,695000,2023-11-16,525000,2021-09-29,,625,32.763775,-117.187219,1,450,1
https://www.realtor.com/realestateandhomes-detail/9994016889,SDCA,230022545,FOR_SALE,SINGLE_FAMILY,2372  Vancouver Ave,,San Diego,CA,92104,4,3,,1882,1945,4,1199000,2023-11-16,,,6700,637,32.731157,-117.114491,1,0,
https://www.realtor.com/realestateandhomes-detail/1121579852,SDCA,230022540,FOR_SALE,SINGLE_FAMILY,16914  Silver Crest Dr,,San Diego,CA,92127,5,4,,3272,2005,4,1795000,2023-11-16,850000,2016-07-29,4994,549,33.02346,-117.116168,2,90,3
https://www.realtor.com/realestateandhomes-detail/1606826355,SDCA,230022539,FOR_SALE,SINGLE_FAMILY,12338  Nacido Dr,,San Diego,CA,92128,3,2,,1614,1970,4,949000,2023-11-16,455000,2003-12-15,8800,588,33.00875,-117.062942,1,43,2
https://www.realtor.com/realestateandhomes-detail/2228992607,SDCA,230022537,FOR_SALE,CONDOS,2605  Pico Pl,Apt 116,San Diego,CA,92109,1,1,,625,1976,4,539900,2023-11-16,60000,1996-02-02,,864,32.806934,-117.222085,1,283,
https://www.realtor.com/realestateandhomes-detail/2704245171,SDCA,230022533,FOR_SALE,SINGLE_FAMILY,3942  Sequoia St,,San Diego,CA,92109,4,3,,1763,1985,4,1899000,2023-11-16,1000000,2019-02-14,,1077,32.792296,-117.23401,2,0,2
https://www.realtor.com/realestateandhomes-detail/1313446111,MRCA,NDP2308882,FOR_SALE,CONDOS,10357  Azuaga St,Unit 201,San Diego,CA,92129,2,2,,881,1991,4,550000,2023-11-16,190000,2011-05-06,,624,32.960955,-117.09996,1,400,
https://www.realtor.com/realestateandhomes-detail/1995946993,SDCA,230022526,FOR_SALE,CONDOS,550  Front St,Unit 2305,San Diego,CA,92101,2,2,1,1913,2005,4,2649000,2023-11-16,2250000,2020-02-11,36590,1385,32.711071,-117.165154,1,1629,2
https://www.realtor.com/realestateandhomes-detail/9962996868,SDCA,230022523,FOR_SALE,CONDOS,207  5th Ave,Unit 1101,San Diego,CA,92101,1,1,,994,2008,4,1000000,2023-11-16,,,52708,1006,32.707745,-117.159615,1,837,
https://www.realtor.com/realestateandhomes-detail/1066834594,MRCA,OC23210425,FOR_SALE,MULTI_FAMILY,8125  Dodie St,,San Diego,CA,92114,4,2,,1250,1954,4,640000,2023-11-16,,,9091,512,32.718114,-117.030448,1,0,2
https://www.realtor.com/realestateandhomes-detail/1714252695,MRCA,SW23210842,FOR_SALE,SINGLE_FAMILY,10985  Madrigal St,,San Diego,CA,92129,4,2,,1574,1972,4,995900,2023-11-16,6500,1974-07-01,7200,633,32.992272,-117.093191,1,0,2
https://www.realtor.com/realestateandhomes-detail/2848613432,SDCA,230022519,FOR_SALE,SINGLE_FAMILY,3418  Via Beltran,,San Diego,CA,92117,4,2,,2258,1969,4,1689000,2023-11-16,1300000,2023-05-22,8300,748,32.80258,-117.204456,1,0,2
https://www.realtor.com/realestateandhomes-detail/2550989792,MRCA,NDP2308876,FOR_SALE,MOBILE,2626  Coronado Ave,Spc 33,San Diego,CA,92154,4,2,,1653,2006,4,300000,2023-11-16,,,,181,32.577541,-117.077546,1,0,
https://www.realtor.com/realestateandhomes-detail/1891079561,SDCA,230022515,FOR_SALE,SINGLE_FAMILY,4388  Middlesex Dr,,San Diego,CA,92116,2,2,,1725,1942,4,1975000,2023-11-16,885000,2016-03-24,13068,1145,32.773324,-117.099907,1,0,2
https://www.realtor.com/realestateandhomes-detail/2348590389,SDCA,230022511,FOR_SALE,SINGLE_FAMILY,10915  Portobelo Dr,,San Diego,CA,92124,4,2,1,2364,1990,4,1375000,2023-11-16,285000,1989-05-11,6339,582,32.840695,-117.091207,2,60,3
https://www.realtor.com/realestateandhomes-detail/1237509462,MRCA,PTP2305672,FOR_SALE,SINGLE_FAMILY,5575  Red River Dr,,San Diego,CA,92120,5,1,,2217,1965,4,1395000,2023-11-16,487500,2004-02-02,9900,629,32.804578,-117.073319,2,0,2
https://www.realtor.com/realestateandhomes-detail/1988746962,SDCA,230022509,FOR_SALE,CONDOS,450  J St,Unit 7291,San Diego,CA,92101,2,2,,1020,2004,4,745000,2023-11-16,622000,2018-01-18,,730,32.709729,-117.160566,1,544,2
https://www.realtor.com/realestateandhomes-detail/2340220104,SDCA,230022508,FOR_SALE,SINGLE_FAMILY,13683  Recuerdo Dr,,Del Mar,CA,92014,3,2,,1794,1971,4,2150000,2023-11-16,,,5500,1198,32.94681,-117.251515,2,0,
https://www.realtor.com/realestateandhomes-detail/2071558521,SDCA,230022506,FOR_SALE,MULTI_FAMILY,6250-6256  Stewart St,,San Diego,CA,92115,17,9,,5184,1932,4,2895000,2023-11-16,154000,1993-01-06,9456,558,32.766143,-117.064049,2,0,
https://www.realtor.com/realestateandhomes-detail/1547200847,SDCA,230022505,FOR_SALE,SINGLE_FAMILY,16416  Felice Dr,,San Diego,CA,92128,3,2,,2046,1964,4,1169000,2023-11-16,183000,1997-03-06,6000,571,33.011421,-117.063164,1,42,2
https://www.realtor.com/realestateandhomes-detail/2702333266,SDCA,230022504,FOR_SALE,SINGLE_FAMILY,13209  Winstanley Way,,San Diego,CA,92130,5,4,1,3708,1998,4,2800000,2023-11-16,1100000,2001-03-29,9324,755,32.95957,-117.211266,2,138,3
https://www.realtor.com/realestateandhomes-detail/1990205195,MRCA,NDP2308850,FOR_SALE,SINGLE_FAMILY,10743  Juniper Park Ln,,San Diego,CA,92121,4,3,,2432,1997,4,1975000,2023-11-16,1690000,2021-09-13,10332,812,32.913725,-117.198073,2,52,3
https://www.realtor.com/realestateandhomes-detail/2779487616,SDCA,230022500,FOR_SALE,CONDOS,12949  Caminito Del Canto,,Del Mar,CA,92014,2,2,1,1446,1999,4,1695000,2023-11-16,770000,2009-09-23,299693,1172,32.935435,-117.254183,2,705,2
https://www.realtor.com/realestateandhomes-detail/2525170975,SDCA,230022495,FOR_SALE,SINGLE_FAMILY,3595  Santoro Way,,San Diego,CA,92130,4,3,,2554,1987,4,2300000,2023-11-16,380000,1993-02-17,6900,901,32.957531,-117.23927,2,49,2
https://www.realtor.com/realestateandhomes-detail/1545933805,SDCA,230022494,FOR_SALE,SINGLE_FAMILY,16485  Sarape Dr,,San Diego,CA,92128,2,2,,1197,1964,4,819000,2023-11-16,280000,2003-09-19,7100,684,33.01295,-117.060953,1,43,1
https://www.realtor.com/realestateandhomes-detail/2960958907,MRCA,NDP2308871,FOR_SALE,SINGLE_FAMILY,5585  Meadows Del Mar,,San Diego,CA,92130,4,1,1,5850,2003,4,4395000,2023-11-16,2750000,2021-02-02,19654,751,32.940276,-117.188088,2,435,3
https://www.realtor.com/realestateandhomes-detail/1070352266,MRCA,OC23211472,FOR_SALE,CONDOS,2266  Grand Ave,Unit 23,San Diego,CA,92109,2,1,1,886,1965,4,699000,2023-11-16,467500,2020-10-15,26001,789,32.800923,-117.227995,1,356,
https://www.realtor.com/realestateandhomes-detail/1650166646,SDCA,230022485,FOR_SALE,SINGLE_FAMILY,11934  Avenida Consentido,,San Diego,CA,92128,3,2,,2122,1988,4,1500000,2023-11-16,695000,2005-05-26,8621,707,33.011897,-117.07247,1,79,2
https://www.realtor.com/realestateandhomes-detail/1644092297,SDCA,230022483,FOR_SALE,SINGLE_FAMILY,11931  Avenida Consentido,,San Diego,CA,92128,3,2,1,2340,1988,4,1500000,2023-11-16,675000,2014-01-22,10890,641,33.011529,-117.072829,2,79,3
https://www.realtor.com/realestateandhomes-detail/1882504327,MRCA,NDP2308869,FOR_SALE,MULTI_FAMILY,4529  51st St,,San Diego,CA,92115,5,3,,1600,1925,4,1200000,2023-11-16,350000,2012-04-11,5000,750,32.759534,-117.08436,,0,
https://www.realtor.com/realestateandhomes-detail/1453204737,MRCA,PTP2305617,FOR_SALE,SINGLE_FAMILY,6368  Lake Apopka Pl,,San Diego,CA,92119,3,2,,1392,1962,4,940000,2023-11-16,269000,2001-05-24,8000,675,32.796857,-117.007873,1,0,2
https://www.realtor.com/realestateandhomes-detail/2530670222,SDCA,230022480,FOR_SALE,MULTI_FAMILY,1820-26  Missouri St,,San Diego,CA,92109,9,5,3,3575,2000,4,1999000,2023-11-16,1243500,2004-06-30,6243,559,32.804715,-117.23787,2,,
https://www.realtor.com/realestateandhomes-detail/1144775714,SDCA,230022477,FOR_SALE,MULTI_FAMILY,1056-62  Beryl St,,San Diego,CA,92109,4,4,,2112,1950,4,1929000,2023-11-16,,,6275,913,32.804466,-117.252607,1,0,
https://www.realtor.com/realestateandhomes-detail/2009358514,MRCA,PTP2305664,FOR_SALE,SINGLE_FAMILY,10828  Ironwood Rd,,San Diego,CA,92131,5,3,,3270,1991,4,1675000,2023-11-16,345000,1989-03-17,8988,512,32.903197,-117.098012,1,0,2
https://www.realtor.com/realestateandhomes-detail/2930891741,SDCA,230022476,FOR_SALE,CONDOS,4077  3rd Ave,Apt 407,San Diego,CA,92103,1,1,,594,2001,4,489000,2023-11-16,337000,2007-09-13,,823,32.751524,-117.162448,1,330,2
https://www.realtor.com/realestateandhomes-detail/2277119264,SDCA,230022474,FOR_SALE,CONDOS,7555  Linda Vista Rd,Unit 12,San Diego,CA,92111,0,1,,434,1969,4,360000,2023-11-16,310000,2022-08-11,,829,32.799032,-117.158653,1,235,
https://www.realtor.com/realestateandhomes-detail/2767239135,SDCA,230022471,FOR_SALE,SINGLE_FAMILY,2444  Fairmount Ave,,San Diego,CA,92105,3,1,,1229,1951,4,759000,2023-11-16,34500,1976-06-11,8461,618,32.731257,-117.101361,1,0,2
https://www.realtor.com/realestateandhomes-detail/2071744851,SDCA,230022469,FOR_SALE,SINGLE_FAMILY,5407  Baja Dr,,San Diego,CA,92115,8,4,,2353,1960,4,1750000,2023-11-16,152000,1993-01-21,,744,32.767424,-117.079503,2,0,2
https://www.realtor.com/realestateandhomes-detail/1679110880,SDCA,230022468,FOR_SALE,CONDOS,5543  Adobe Falls Rd,Unit 11,San Diego,CA,92120,2,2,,1144,1973,5,509000,2023-11-15,,,164221,445,32.781396,-117.07974,2,420,
https://www.realtor.com/realestateandhomes-detail/1467861625,SDCA,230022466,FOR_SALE,CONDOS,5950  Rancho Mission Rd,Unit 171,San Diego,CA,92108,2,1,,824,1977,5,479900,2023-11-15,323000,2020-01-15,125017,582,32.78212,-117.112437,1,350,
https://www.realtor.com/realestateandhomes-detail/2979457305,SDCA,230022465,FOR_SALE,CONDOS,390  San Antonio Ave,Unit 13C,San Diego,CA,92106,2,2,,1275,1965,5,499000,2023-11-15,375000,2022-03-01,,391,32.709176,-117.237809,1,435,1
https://www.realtor.com/realestateandhomes-detail/2344839705,SDCA,230022463,FOR_SALE,CONDOS,239  50th St,Apt 37,San Diego,CA,92102,3,2,,792,1987,5,439900,2023-11-15,300000,2021-04-01,,555,32.705518,-117.086175,1,311,2
https://www.realtor.com/realestateandhomes-detail/1437130398,SDCA,230022464,FOR_SALE,SINGLE_FAMILY,10671  Heather Ridge Dr,,San Diego,CA,92130,4,3,,2732,2005,5,2499000,2023-11-15,1425000,2019-12-16,7195,915,32.927781,-117.204335,2,45,2
https://www.realtor.com/realestateandhomes-detail/9698539763,SDCA,230022462,FOR_SALE,CONDOS,3796  Alabama St,Unit A219,San Diego,CA,92104,1,1,,378,1981,5,310000,2023-11-15,172000,2020-11-03,66211,820,32.747169,-117.142754,1,352,
https://www.realtor.com/realestateandhomes-detail/2668293348,SDCA,230022461,FOR_SALE,MULTI_FAMILY,3968  Oregon St,,San Diego,CA,92104,6,4,,3450,1935,5,2200000,2023-11-15,1240000,2019-06-18,7001,638,32.749731,-117.135455,2,0,
https://www.realtor.com/realestateandhomes-detail/1407866606,SDCA,230022457,FOR_SALE,SINGLE_FAMILY,1743  30th St,,San Diego,CA,92102,2,1,,640,2008,5,800000,2023-11-15,,,,1250,32.724303,-117.12999,1,0,
https://www.realtor.com/realestateandhomes-detail/2298467696,SDCA,230022454,FOR_SALE,SINGLE_FAMILY,10718  Portobelo Dr,,San Diego,CA,92124,2,2,1,1427,1980,5,875000,2023-11-15,515000,2016-11-16,6653,613,32.839735,-117.095145,2,370,2
https://www.realtor.com/realestateandhomes-detail/2090635535,SDCA,230022452,FOR_SALE,TOWNHOMES,9771  Caminito Doha,,San Diego,CA,92131,3,2,1,1513,1978,5,849000,2023-11-15,530000,2018-03-28,230868,561,32.901355,-117.105993,2,465,1
https://www.realtor.com/realestateandhomes-detail/1101265206,SDCA,230022451,FOR_SALE,SINGLE_FAMILY,7525  Flower Meadow Dr,,San Diego,CA,92126,3,2,1,1384,1985,5,1199000,2023-11-15,1065000,2021-11-24,8664,866,32.927158,-117.160634,1,0,2
https://www.realtor.com/realestateandhomes-detail/2101385796,MRCA,PTP2305659,FOR_SALE,MULTI_FAMILY,721  Elizabeth St,,San Diego,CA,92113,,,,1536,1942,5,895900,2023-11-15,46000,1984-05-31,6580,583,32.698246,-117.098821,,0,3
https://www.realtor.com/realestateandhomes-detail/1684592123,MRCA,OC23207049,FOR_SALE,SINGLE_FAMILY,7543  Brookhaven Rd,,San Diego,CA,92114,3,1,1,1056,1969,5,699900,2023-11-15,30000,1979-05-31,6100,663,32.694827,-117.032328,1,0,2
https://www.realtor.com/realestateandhomes-detail/1796550386,SDCA,230022448,FOR_SALE,SINGLE_FAMILY,3035  L St,,San Diego,CA,92102,4,2,,1052,1968,5,750000,2023-11-15,,,,713,32.707152,-117.128773,1,0,
https://www.realtor.com/realestateandhomes-detail/2565977183,SDCA,230022447,FOR_SALE,CONDOS,3621  Bernwood Pl,Unit 108,San Diego,CA,92130,1,1,,639,1992,5,589000,2023-11-15,115000,1992-10-20,,922,32.955556,-117.235846,1,357,
https://www.realtor.com/realestateandhomes-detail/1725118453,SDCA,230022446,FOR_SALE,SINGLE_FAMILY,16180  Avenida Venusto,Apt 38,San Diego,CA,92128,2,2,,1097,1986,5,599000,2023-11-15,242000,2010-06-21,,546,33.00806,-117.077561,1,586,1
https://www.realtor.com/realestateandhomes-detail/2690252435,SDCA,230022445,FOR_SALE,TOWNHOMES,3788  Park Blvd,Apt 2,San Diego,CA,92103,3,2,,1520,2006,5,974000,2023-11-15,,,13504,641,32.747383,-117.146709,2,529,2
https://www.realtor.com/realestateandhomes-detail/1652005823,SDCA,230022441,FOR_SALE,SINGLE_FAMILY,1624  Reed Ave,,San Diego,CA,92109,0,1,,459,1972,5,749000,2023-11-15,442000,2016-07-28,3121,1632,32.796357,-117.239154,1,0,
https://www.realtor.com/realestateandhomes-detail/1120371965,MRCA,PTP2305603,FOR_SALE,CONDOS,6289  Avenida De Las Vistas,Unit 6,San Diego,CA,92154,2,2,,1141,2003,5,549900,2023-11-15,380000,2004-12-29,47472,482,32.578257,-117.002334,2,199,1
https://www.realtor.com/realestateandhomes-detail/1419354544,SDCA,230022437,FOR_SALE,CONDOS,1150  J St,Unit 424,San Diego,CA,92101,0,1,,718,2005,5,464000,2023-11-15,310000,2016-10-31,,646,32.709724,-117.154189,1,472,1
https://www.realtor.com/realestateandhomes-detail/2658080094,SDCA,230022435,FOR_SALE,MULTI_FAMILY,3966  Teak St,,San Diego,CA,92113,,4,,,1953,5,1799000,2023-11-15,1015000,2021-10-04,,,32.700588,-117.108867,2,0,
https://www.realtor.com/realestateandhomes-detail/2196223126,SDCA,230022434,FOR_SALE,CONDOS,1464  Essex St,Apt 6,San Diego,CA,92103,1,1,,588,1962,5,495000,2023-11-15,330000,2018-01-11,,842,32.747723,-117.14978,1,324,
https://www.realtor.com/realestateandhomes-detail/2041112246,SDCA,230022432,FOR_SALE,SINGLE_FAMILY,4935  Curry Dr,,San Diego,CA,92115,4,3,,1966,1955,5,1100000,2023-11-15,900000,2023-05-22,5200,560,32.768764,-117.06022,1,0,2
https://www.realtor.com/realestateandhomes-detail/1146815530,SDCA,230022429,FOR_SALE,SINGLE_FAMILY,2103  Garfield Rd,,San Diego,CA,92110,3,2,,1600,1951,5,1499000,2023-11-15,857500,2019-07-25,7200,937,32.78237,-117.196613,1,0,1
https://www.realtor.com/realestateandhomes-detail/1824201716,SDCA,230022427,FOR_SALE,SINGLE_FAMILY,6878  Deer Hollow Pl,,San Diego,CA,92120,5,3,,1941,1974,5,1129000,2023-11-15,139000,1979-09-28,6100,582,32.814831,-117.059309,2,0,2
https://www.realtor.com/realestateandhomes-detail/1856026861,SDCA,230022422,FOR_SALE,TOWNHOMES,9980  Scripps Vista Way,Unit 99,San Diego,CA,92131,3,3,,1352,1994,5,749888,2023-11-15,190000,1999-10-29,,555,32.926695,-117.112751,3,470,2
https://www.realtor.com/realestateandhomes-detail/1613887257,MRCA,PTP2304289,FOR_SALE,CONDOS,2594  Caminito Avellano,,San Diego,CA,92154,4,2,1,1484,1974,5,545000,2023-11-15,33000,1975-06-27,,367,32.573032,-117.07697,2,280,2
https://www.realtor.com/realestateandhomes-detail/1112618571,SDCA,230022414,FOR_SALE,TOWNHOMES,10561  Zenor Ln,Unit 65,San Diego,CA,92127,2,2,1,1389,2005,5,897777,2023-11-15,447000,2016-06-01,,646,33.022064,-117.111864,3,235,2
https://www.realtor.com/realestateandhomes-detail/2506708222,SDCA,230022407,FOR_SALE,CONDOS,1915  Avenida Del Mexico,Unit 264,San Diego,CA,92154,2,2,,885,1987,5,485000,2023-11-15,300000,2008-01-07,,548,32.582774,-117.091485,1,310,
https://www.realtor.com/realestateandhomes-detail/1483587883,SDCA,230022402,FOR_SALE,CONDOS,17447  Plaza Animado,Unit 136,San Diego,CA,92128,2,2,,1431,1973,5,699000,2023-11-15,250000,2002-12-09,,488,33.028236,-117.053381,1,452,
https://www.realtor.com/realestateandhomes-detail/2030327867,MRCA,NDP2308833,FOR_SALE,SINGLE_FAMILY,1409  Opal St,,San Diego,CA,92109,5,4,1,3343,2010,5,4499000,2023-11-15,1795000,2017-11-06,6600,1346,32.808134,-117.247193,2,0,2
https://www.realtor.com/realestateandhomes-detail/1413257022,SDCA,230022398,FOR_SALE,SINGLE_FAMILY,704  Vista San Matias,,San Diego,CA,92154,5,3,1,2409,2003,5,919000,2023-11-15,480000,2014-10-06,4558,381,32.581814,-117.009007,2,15,2
https://www.realtor.com/realestateandhomes-detail/1392437158,SDCA,230022392,FOR_SALE,CONDOS,1501  Front St,Unit 314,San Diego,CA,92101,1,1,,845,2004,6,615000,2023-11-14,405000,2017-04-07,,728,32.721431,-117.164306,1,450,1
https://www.realtor.com/realestateandhomes-detail/1599791619,STNY,11223909,FOR_SALE,MOBILE,4822  Old Cliffs Rd,,San Diego,CA,92120,2,,2,1080,1967,6,169000,2023-11-14,,,,156,32.800911,-117.086947,1,0,
https://www.realtor.com/realestateandhomes-detail/1396012918,SDCA,230022384,FOR_SALE,CONDOS,11947  Bajada Rd,,San Diego,CA,92128,2,2,1,1773,1967,6,979000,2023-11-14,275000,2014-09-12,,552,33.02494,-117.073007,1,648,2
https://www.realtor.com/realestateandhomes-detail/2521366456,SDCA,230022381,FOR_SALE,MULTI_FAMILY,2113-15  Julian Ave,,San Diego,CA,92113,4,2,,,1955,6,849000,2023-11-14,,,7209,,32.70038,-117.139364,1,,
https://www.realtor.com/realestateandhomes-detail/2191044505,SDCA,230022380,FOR_SALE,CONDOS,4583  North Ave,Unit 2,San Diego,CA,92116,2,1,1,971,1981,6,760000,2023-11-14,,,7004,783,32.760646,-117.147139,2,197,1
https://www.realtor.com/realestateandhomes-detail/2445536133,MRCA,PTP2305642,FOR_SALE,MULTI_FAMILY,751  24th St,,San Diego,CA,92154,4,3,,1647,1945,6,799000,2023-11-14,180000,2011-12-28,4886,485,32.582872,-117.082076,,0,
https://www.realtor.com/realestateandhomes-detail/1840710528,SDCA,230022376,FOR_SALE,SINGLE_FAMILY,3734  Clinton St,,San Diego,CA,92113,1,1,,644,1922,6,312000,2023-11-14,210000,2017-11-20,,484,32.704643,-117.113903,1,0,1
https://www.realtor.com/realestateandhomes-detail/2087563311,SDCA,230022368,FOR_SALE,SINGLE_FAMILY,8568  Prestwick Dr,,La Jolla,CA,92037,4,3,,2738,1975,6,5495000,2023-11-14,114000,1975-01-16,,2007,32.862759,-117.245853,1,0,2
https://www.realtor.com/realestateandhomes-detail/2745662154,SDCA,230022367,FOR_SALE,SINGLE_FAMILY,2549  Roseview Pl,,San Diego,CA,92105,3,1,,999,1957,6,599000,2023-11-14,73000,1983-10-04,6235,600,32.732354,-117.097652,2,0,2
https://www.realtor.com/realestateandhomes-detail/1441182359,SDCA,230022366,FOR_SALE,SINGLE_FAMILY,1614  33rd St,,San Diego,CA,92102,2,2,,1308,1937,6,949000,2023-11-14,102000,1991-01-24,2100,726,32.722666,-117.12383,2,0,1
https://www.realtor.com/realestateandhomes-detail/1610130182,SDCA,230022364,FOR_SALE,CONDOS,6665  Mission Gorge Rd,Unit D11,San Diego,CA,92120,2,2,,1038,1972,6,475000,2023-11-14,,,,458,32.793866,-117.096484,1,285,1
https://www.realtor.com/realestateandhomes-detail/1895408739,SDCA,230022363,FOR_SALE,SINGLE_FAMILY,7209  Romero Dr,,La Jolla,CA,92037,4,5,1,5308,2003,6,6950000,2023-11-14,600000,1997-10-14,17424,1309,32.839247,-117.258054,3,,2
https://www.realtor.com/realestateandhomes-detail/2846492422,SDCA,230022362,FOR_SALE,SINGLE_FAMILY,4584  Leon St,,San Diego,CA,92107,3,3,,3271,2010,6,3999000,2023-11-14,3250000,2021-08-20,6900,1223,32.730127,-117.254434,2,0,2
https://www.realtor.com/realestateandhomes-detail/1151666275,SDCA,230022338,FOR_SALE,TOWNHOMES,1701  Santa Gloria,,San Diego,CA,92154,3,2,1,1829,2016,6,674900,2023-11-14,460000,2018-05-29,250906,369,32.563284,-117.014801,3,333,2
https://www.realtor.com/realestateandhomes-detail/1981188610,SDCA,230022361,FOR_SALE,SINGLE_FAMILY,4836  50th St,,San Diego,CA,92115,3,2,,1070,1945,6,1099000,2023-11-14,1040000,2022-07-08,5700,1027,32.7657,-117.086461,1,0,2
https://www.realtor.com/realestateandhomes-detail/2944349639,SDCA,230022360,FOR_SALE,SINGLE_FAMILY,2666  Escondido Ave,,San Diego,CA,92123,4,2,,1570,1961,6,899999,2023-11-14,,,8200,573,32.793562,-117.14806,1,0,2
https://www.realtor.com/realestateandhomes-detail/2981916857,SDCA,230022356,FOR_SALE,CONDOS,602 W Fir St,Unit 104,San Diego,CA,92101,2,2,,1387,1993,6,999000,2023-11-14,520000,2013-09-30,,720,32.72476,-117.168074,2,320,2
https://www.realtor.com/realestateandhomes-detail/2388144075,SDCA,230022355,FOR_SALE,SINGLE_FAMILY,3680  35th St,,San Diego,CA,92104,2,1,,868,1943,6,810000,2023-11-14,,,4150,933,32.745635,-117.118392,1,0,1
https://www.realtor.com/realestateandhomes-detail/1475873802,SDCA,230022353,FOR_SALE,CONDOS,1209  Hueneme St,Apt 13,San Diego,CA,92110,2,2,,1121,1977,6,699000,2023-11-14,348000,2004-01-15,,624,32.768214,-117.185526,1,432,1
https://www.realtor.com/realestateandhomes-detail/2248858534,MRCA,PW23210907,FOR_SALE,SINGLE_FAMILY,9064  Dewsbury Ave,,San Diego,CA,92126,3,2,,1275,1976,6,925000,2023-11-14,,,5000,725,32.918725,-117.129649,1,0,2
https://www.realtor.com/realestateandhomes-detail/1106373605,MRCA,PTP2305638,FOR_SALE,CONDOS,6333  College Grove Way,Unit 13105,San Diego,CA,92115,3,2,,1024,1973,6,519900,2023-11-14,129000,2012-12-10,207402,508,32.736556,-117.057638,1,397,
https://www.realtor.com/realestateandhomes-detail/1477780694,MRCA,NDP2308810,FOR_SALE,CONDOS,8338  Regents Rd,Unit 1O,San Diego,CA,92122,2,2,,1075,1981,6,798000,2023-11-14,435000,2005-08-19,87634,742,32.866422,-117.222274,1,482,2
https://www.realtor.com/realestateandhomes-detail/1836318221,MRCA,PTP2305634,FOR_SALE,MULTI_FAMILY,4651-4653  30th St,,San Diego,CA,92116,8,4,,5248,1948,6,1495000,2023-11-14,,,5428,285,32.762008,-117.129839,,0,2
https://www.realtor.com/realestateandhomes-detail/2794515145,MRCA,PTP2305633,FOR_SALE,MULTI_FAMILY,4263  Chamoune Ave,,San Diego,CA,92115,4,2,,2022,2000,6,875000,2023-11-14,340000,2014-04-30,7507,433,32.754679,-117.096217,,0,2
https://www.realtor.com/realestateandhomes-detail/1483774182,SDCA,230022343,FOR_SALE,MULTI_FAMILY,5648-54  Lauretta St,,San Diego,CA,92110,12,9,3,5800,2015,6,2995000,2023-11-14,268000,2001-08-01,5169,516,32.767832,-117.191143,2,0,6
https://www.realtor.com/realestateandhomes-detail/2366748380,SDCA,230022339,FOR_SALE,SINGLE_FAMILY,5389  La Jolla Mesa Dr,,La Jolla,CA,92037,3,2,,2364,1950,6,2698000,2023-11-14,1280000,2017-05-02,5300,1141,32.812526,-117.260001,2,0,1
https://www.realtor.com/realestateandhomes-detail/1180304895,SDCA,230022337,FOR_SALE,MOBILE,5018  Old Cliffs Rd,,San Diego,CA,92120,2,2,,1440,2008,6,349000,2023-11-14,,,,242,32.800912,-117.086948,1,1585,
https://www.realtor.com/realestateandhomes-detail/9127997224,LC1B,110610104,FOR_SALE,SINGLE_FAMILY,2245  Acara Cir,,San Diego,CA,92154,3,3,,1592,,6,601900,2023-11-14,,,,378,,,3,,2
https://www.realtor.com/realestateandhomes-detail/2958659760,SDCA,230022328,FOR_SALE,CONDOS,3246  Ashford St,Unit K,San Diego,CA,92111,2,1,,716,1975,7,445000,2023-11-13,269000,2004-07-27,,622,32.803132,-117.160278,1,389,
https://www.realtor.com/realestateandhomes-detail/2825483143,MRCA,PTP2305629,FOR_SALE,MULTI_FAMILY,4218  49th St,,San Diego,CA,92115,24,16,,10982,1956,7,5650000,2023-11-13,2770000,2019-04-08,11570,514,32.753466,-117.089317,,0,
https://www.realtor.com/realestateandhomes-detail/9207759990,SDCA,230022320,FOR_SALE,LAND,530  42nd St,Units 1 & 2,San Diego,CA,92102,,,,,,7,1399000,2023-11-13,,,11761,,32.710999,-117.104996,,,
https://www.realtor.com/realestateandhomes-detail/1819383037,MRCA,PTP2305624,FOR_SALE,SINGLE_FAMILY,6235  Valner Way,,San Diego,CA,92139,3,2,,1220,1959,7,699000,2023-11-13,102000,1987-05-06,7000,573,32.680361,-117.057881,1,0,2
https://www.realtor.com/realestateandhomes-detail/1200823815,WECA,23-304873,FOR_SALE,CONDOS,5252  Balboa Arms Dr,Unit 180,San Diego,CA,92117,1,1,,582,1995,7,469900,2023-11-13,319000,2020-09-16,,807,32.824754,-117.180223,2,315,
https://www.realtor.com/realestateandhomes-detail/2777594357,SDCA,230022316,FOR_SALE,MULTI_FAMILY,1268-74  Locust St,,San Diego,CA,92106,8,8,,4220,1992,7,3397000,2023-11-13,300000,1990-09-06,5327,805,32.724285,-117.231255,2,0,4
https://www.realtor.com/realestateandhomes-detail/2627316893,SDCA,230022313,FOR_SALE,SINGLE_FAMILY,3951  Atascadero Dr,,San Diego,CA,92107,4,4,,2757,1927,7,2150000,2023-11-13,560000,2001-04-04,,780,32.738589,-117.234492,2,0,2
https://www.realtor.com/realestateandhomes-detail/2031217206,SDCA,230022311,FOR_SALE,SINGLE_FAMILY,7950  Avenida Kirjah,,La Jolla,CA,92037,5,5,2,5814,2006,7,4355000,2023-11-13,2550000,2007-12-10,19166,749,32.851147,-117.238491,2,0,3
https://www.realtor.com/realestateandhomes-detail/2210127816,MRCA,PTP2305620,FOR_SALE,SINGLE_FAMILY,1180  Stillwell Ave,,San Diego,CA,92114,4,3,,1818,1980,7,959900,2023-11-13,735000,2023-05-11,7173,528,32.694622,-117.071249,2,0,2
https://www.realtor.com/realestateandhomes-detail/2534189334,MRCA,NDP2308793,FOR_SALE,SINGLE_FAMILY,13384  Pantera Rd,,San Diego,CA,92130,3,2,,1620,1986,7,1995000,2023-11-13,850000,2005-10-21,3920,1231,32.959897,-117.240319,1,94,2
https://www.realtor.com/realestateandhomes-detail/1939911122,SDCA,230022309,FOR_SALE,CONDOS,1970  Columbia St,Unit 507,San Diego,CA,92101,2,2,,805,2004,7,640000,2023-11-13,260000,2009-03-06,,795,32.725212,-117.16827,1,516,1
https://www.realtor.com/realestateandhomes-detail/1193859670,SDCA,230022308,FOR_SALE,SINGLE_FAMILY,6365  Lake Ariana Ave,,San Diego,CA,92119,3,2,,1258,1959,7,725000,2023-11-13,112000,1984-11-14,6000,576,32.79672,-117.013765,1,,2
https://www.realtor.com/realestateandhomes-detail/1704644379,SDCA,230022307,FOR_SALE,SINGLE_FAMILY,960 W Muirlands Dr,,La Jolla,CA,92037,3,2,,1695,1950,7,2999500,2023-11-13,1030000,2011-03-11,9748,1770,32.834588,-117.270443,1,0,2
https://www.realtor.com/realestateandhomes-detail/1002682266,SDCA,230022302,FOR_SALE,SINGLE_FAMILY,3791  Cedarbrae Ln,,San Diego,CA,92106,5,3,1,3811,2005,7,3200000,2023-11-13,1985000,2020-01-31,12197,840,32.710333,-117.248452,2,0,2
https://www.realtor.com/realestateandhomes-detail/1868313219,MRCA,SW23200200,FOR_SALE,SINGLE_FAMILY,2863  Calle Salida Del Sol,,San Diego,CA,92139,3,2,,1000,1958,7,725000,2023-11-13,675000,2022-02-09,7500,725,32.668923,-117.061431,1,0,1
https://www.realtor.com/realestateandhomes-detail/9558936569,SDCA,230022300,FOR_SALE,CONDOS,5252  Beachfront Cove St,Unit 198,San Diego,CA,92154,4,3,1,1777,2021,7,699000,2023-11-13,,,,393,32.569186,-117.020046,3,400,2
https://www.realtor.com/realestateandhomes-detail/1686370004,SDCA,230022295,FOR_SALE,SINGLE_FAMILY,254  17th St,,San Diego,CA,92101,4,3,,1210,1925,7,1250000,2023-11-13,565000,2021-10-20,,1033,32.708004,-117.148836,1,0,
https://www.realtor.com/realestateandhomes-detail/9131760525,TPHB,73560058,FOR_SALE,SINGLE_FAMILY,5494  Seacliff Pl,Unit 58,San Diego,CA,92154,3,2,1,1703,,7,685000,2023-11-13,,,,402,32.567956,-117.010426,3,,2
https://www.realtor.com/realestateandhomes-detail/2865948393,SDCA,230022294,FOR_SALE,SINGLE_FAMILY,6349  Lake Shore Dr,,San Diego,CA,92119,4,2,1,1944,1965,8,1199995,2023-11-12,,,8700,617,32.79588,-117.03572,2,0,2
https://www.realtor.com/realestateandhomes-detail/1253582486,MRCA,OC23209084,FOR_SALE,SINGLE_FAMILY,13073  Polvera Ave,,San Diego,CA,92128,6,5,2,7026,1991,8,3880000,2023-11-12,1520000,2013-07-31,57935,552,33.047762,-117.048577,2,68,4
https://www.realtor.com/realestateandhomes-detail/2671327971,MRCA,NDP2308781,FOR_SALE,CONDOS,4355  Rialto St,Apt 3,San Diego,CA,92107,2,2,,777,1984,8,639000,2023-11-12,93000,1996-02-28,6255,822,32.751826,-117.230456,1,165,1
https://www.realtor.com/realestateandhomes-detail/1750896458,SDCA,230022287,FOR_SALE,SINGLE_FAMILY,4809  Felton St,,San Diego,CA,92116,4,3,,1942,1928,8,1599000,2023-11-12,701500,2021-09-21,,823,32.765738,-117.121477,1,0,2
https://www.realtor.com/realestateandhomes-detail/2795649813,MRCA,PTP2305616,FOR_SALE,LAND,,,San Diego,CA,92154,,,,,,8,150000,2023-11-12,,,36590,,32.584996,-117.105272,,0,
https://www.realtor.com/realestateandhomes-detail/1593443998,MRCA,PTP2305611,FOR_SALE,CONDOS,4146  Hamilton St,Apt 19,San Diego,CA,92104,1,1,,620,1997,8,525000,2023-11-12,274000,2017-03-15,14000,847,32.75312,-117.136703,2,190,1
https://www.realtor.com/realestateandhomes-detail/2945605339,SDCA,230022284,FOR_SALE,SINGLE_FAMILY,5585  Shannon Ridge Ln,,San Diego,CA,92130,6,5,1,4670,2000,8,3299000,2023-11-12,1900000,2019-03-21,10019,706,32.932073,-117.198228,2,54,2
https://www.realtor.com/realestateandhomes-detail/1105154713,SDCA,230022283,FOR_SALE,TOWNHOMES,3894  Radcliffe Ln,,San Diego,CA,92122,3,2,1,1598,1977,8,999000,2023-11-12,532500,2016-11-30,,625,32.852436,-117.204506,2,469,2
https://www.realtor.com/realestateandhomes-detail/1896191324,SDCA,230022281,FOR_SALE,SINGLE_FAMILY,6349  Castejon Dr,,La Jolla,CA,92037,5,6,3,7347,2020,8,10995000,2023-11-12,7000000,2020-10-27,20038,1497,32.831195,-117.248876,3,0,4
https://www.realtor.com/realestateandhomes-detail/2411355713,MRCA,PTP2305610,FOR_SALE,SINGLE_FAMILY,5736  La Jolla Corona Dr,,La Jolla,CA,92037,5,4,1,4239,1997,8,9500000,2023-11-12,,,12977,2241,32.81689,-117.265174,1,208,3
https://www.realtor.com/realestateandhomes-detail/9175838974,SH1B,S1308200008076,FOR_SALE,CONDOS,10419  Adamson Way,,San Diego,CA,92126,2,2,1,1518,,8,1039169,2023-11-12,,,,685,32.8989733,-117.1674605,3,,2
https://www.realtor.com/realestateandhomes-detail/9547170376,LC1B,110610100,FOR_SALE,SINGLE_FAMILY,2309  Acara Cir,,San Diego,CA,92154,2,2,1,1501,,8,578900,2023-11-12,,,,386,,,3,,2
https://www.realtor.com/realestateandhomes-detail/2961755982,SDCA,230022277,FOR_SALE,SINGLE_FAMILY,995  Rosecrans St,,San Diego,CA,92106,6,4,,2407,2000,9,1795000,2023-11-11,830000,2016-04-29,5036,746,32.719969,-117.232843,2,0,
https://www.realtor.com/realestateandhomes-detail/2961755982,SDCA,230022274,FOR_SALE,MULTI_FAMILY,995  Rosecrans St,,San Diego,CA,92106,5,4,,2407,2000,9,1795000,2023-11-11,830000,2016-04-29,5036,746,32.719969,-117.232843,2,,
https://www.realtor.com/realestateandhomes-detail/2494065255,SDCA,230022272,FOR_SALE,CONDOS,1127  Thomas Ave,Apt 3,San Diego,CA,92109,2,1,1,810,1972,9,775000,2023-11-11,134000,1997-06-27,12632,957,32.794768,-117.248268,2,360,
https://www.realtor.com/realestateandhomes-detail/9751782997,SDCA,230022260,FOR_SALE,TOWNHOMES,10941  Koya Way,,San Diego,CA,92126,3,2,1,1455,2022,9,1088000,2023-11-11,,,,748,32.897887,-117.16827,2,138,2
https://www.realtor.com/realestateandhomes-detail/2740791688,SDCA,230022256,FOR_SALE,SINGLE_FAMILY,1787  Neale St,,San Diego,CA,92103,5,5,1,3727,2023,9,3999000,2023-11-11,,,5500,1073,32.747102,-117.18009,3,0,2
https://www.realtor.com/realestateandhomes-detail/2849310143,SDCA,230022255,FOR_SALE,CONDOS,4055  Carmel View Rd,Unit 49,San Diego,CA,92130,2,2,,1071,1987,9,899000,2023-11-11,354500,2008-07-21,,839,32.944819,-117.23367,1,450,
https://www.realtor.com/realestateandhomes-detail/2317374612,SDCA,230022254,FOR_SALE,CONDOS,1262  Kettner Blvd,Unit 804,San Diego,CA,92101,2,2,,1535,2008,9,1298888,2023-11-11,605000,2009-06-19,21344,846,32.718431,-117.169586,1,1300,2
https://www.realtor.com/realestateandhomes-detail/1722010124,SDCA,230022253,FOR_SALE,SINGLE_FAMILY,2731 E Evans Rd,,San Diego,CA,92106,3,3,,1931,2004,9,1695000,2023-11-11,1768000,2022-11-21,2295,878,32.731157,-117.218396,2,144,2
https://www.realtor.com/realestateandhomes-detail/1472581588,SDCA,230022251,FOR_SALE,CONDOS,11063  Caminito Vista Pacifica,,San Diego,CA,92131,2,2,,1538,1988,9,869000,2023-11-11,510000,2014-06-03,,565,32.913765,-117.093514,1,645,2
https://www.realtor.com/realestateandhomes-detail/2756492022,SDCA,230022250,FOR_SALE,SINGLE_FAMILY,3620  Paul Jones Ave,,San Diego,CA,92117,3,3,2,1715,1961,9,1498000,2023-11-11,650000,2014-07-02,7544,873,32.804724,-117.212503,2,0,2
https://www.realtor.com/realestateandhomes-detail/2730208160,MRCA,NDP2308768,FOR_SALE,CONDOS,3213  Midway Dr,Unit 802,San Diego,CA,92110,1,1,,741,1980,9,499999,2023-11-11,,,,675,32.749747,-117.210471,1,405,1
https://www.realtor.com/realestateandhomes-detail/2974958154,SDCA,230022245,FOR_SALE,CONDOS,425 W Beech St,Unit 530,San Diego,CA,92101,1,1,,641,2004,9,479900,2023-11-11,255000,2014-04-24,,749,32.72038,-117.166942,1,802,1
https://www.realtor.com/realestateandhomes-detail/1659039058,SDCA,230022241,FOR_SALE,CONDOS,1673  Pentecost Way,Unit 4,San Diego,CA,92105,2,1,,813,1980,9,429000,2023-11-11,257000,2020-05-15,,528,32.722702,-117.081383,1,380,
https://www.realtor.com/realestateandhomes-detail/2109478283,SDCA,230022237,FOR_SALE,MULTI_FAMILY,4263-65  1/2 Maryland St,,San Diego,CA,92103,6,3,,1863,1926,9,1650000,2023-11-11,,,,886,32.754702,-117.150831,2,0,
https://www.realtor.com/realestateandhomes-detail/2671322927,SDCA,230022233,FOR_SALE,SINGLE_FAMILY,3043  Idlewild Ave,,San Diego,CA,92117,3,2,,1293,1954,9,989900,2023-11-11,711500,2023-07-18,,766,32.831303,-117.220012,1,0,1
https://www.realtor.com/realestateandhomes-detail/1719816662,SDCA,230022232,FOR_SALE,CONDOS,510  Camino De La Reina,Unit 206,San Diego,CA,92108,3,2,,1252,1991,9,725000,2023-11-11,345000,2012-09-05,,579,32.766725,-117.16005,1,450,2
https://www.realtor.com/realestateandhomes-detail/9888491613,MRCA,PTP2305605,FOR_SALE,CONDOS,16750  Coyote Bush Dr,Unit 82,San Diego,CA,92127,3,2,,1544,2019,9,1025000,2023-11-11,682000,2019-11-08,,664,33.019346,-117.12955,1,448,2
https://www.realtor.com/realestateandhomes-detail/1031778897,SDCA,230022231,FOR_SALE,TOWNHOMES,426  Brookes Ave,,San Diego,CA,92103,2,2,1,1313,2003,9,895000,2023-11-11,665000,2018-05-31,5247,682,32.743539,-117.161098,3,330,2
https://www.realtor.com/realestateandhomes-detail/2987759569,SDCA,230022228,FOR_SALE,TOWNHOMES,3952  Arizona St,,San Diego,CA,92104,3,3,,1730,2006,9,1150000,2023-11-11,575000,2016-09-02,6957,665,32.749447,-117.137925,3,,2
https://www.realtor.com/realestateandhomes-detail/1001034311,SDCA,230022226,FOR_SALE,SINGLE_FAMILY,364  San Elijo St,,Point Loma,CA,92106,4,4,1,3187,1954,9,3345000,2023-11-11,1635000,2021-08-19,,1050,32.709182,-117.240138,2,0,2
https://www.realtor.com/realestateandhomes-detail/1624493530,MRCA,PTP2305604,FOR_SALE,SINGLE_FAMILY,4967  Dafter Dr,,San Diego,CA,92102,4,2,,2141,1956,9,869000,2023-11-11,,,7841,406,32.72703,-117.088017,1,0,2
https://www.realtor.com/realestateandhomes-detail/1676630508,MRCA,NDP2308760,FOR_SALE,SINGLE_FAMILY,7847  Sendero Angelica,,San Diego,CA,92127,6,2,1,8417,2021,9,13999000,2023-11-11,7900000,2021-12-30,44867,1663,32.98776,-117.146137,2,600,5
https://www.realtor.com/realestateandhomes-detail/1568660955,SDCA,230022224,FOR_SALE,CONDOS,100  Coast Blvd,Unit 302,La Jolla,CA,92037,2,2,,1324,1976,9,2895000,2023-11-11,475000,1990-08-08,54886,2187,32.839031,-117.281031,4,1198,2
https://www.realtor.com/realestateandhomes-detail/1127921697,SDCA,230022222,FOR_SALE,SINGLE_FAMILY,2452  Melbourne Dr,,San Diego,CA,92123,4,2,,1644,1960,9,1050000,2023-11-11,550000,2004-12-17,5400,639,32.789794,-117.128745,1,0,2
https://www.realtor.com/realestateandhomes-detail/2223191868,SDCA,230022220,FOR_SALE,SINGLE_FAMILY,3550  Wawona Dr,,San Diego,CA,92106,3,2,1,2193,1980,10,1799000,2023-11-10,965000,2020-02-28,,820,32.734216,-117.229396,3,0,2
https://www.realtor.com/realestateandhomes-detail/2135952296,SDCA,230022218,FOR_SALE,CONDOS,4155  Mount Alifan Pl,Unit D,San Diego,CA,92111,3,2,,1132,1973,10,619900,2023-11-10,180000,2002-01-29,,548,32.816513,-117.179159,1,495,1
https://www.realtor.com/realestateandhomes-detail/2959665941,SDCA,230022217,FOR_SALE,SINGLE_FAMILY,2542  Greyling Dr,,San Diego,CA,92123,4,2,,1516,1958,10,949000,2023-11-10,,,10890,626,32.791298,-117.143093,1,0,1
https://www.realtor.com/realestateandhomes-detail/2346305794,SDCA,230022216,FOR_SALE,CONDOS,4114  Mount Acadia Blvd,,San Diego,CA,92111,4,2,1,1892,1968,10,799000,2023-11-10,,,2168,422,32.814776,-117.183512,2,470,
https://www.realtor.com/realestateandhomes-detail/9563050668,SDCA,230022214,FOR_SALE,CONDOS,300 W Beech St,Unit 2001,San Diego,CA,92101,2,2,,938,2004,10,829000,2023-11-10,,,60113,884,32.721626,-117.165871,1,664,2
https://www.realtor.com/realestateandhomes-detail/2066650789,PDCA,219102763,FOR_SALE,SINGLE_FAMILY,4343  Hawk St,,San Diego,CA,92103,3,2,1,2148,1926,10,1789000,2023-11-10,1010000,2017-03-20,4600,833,32.756535,-117.172092,2,0,1
https://www.realtor.com/realestateandhomes-detail/1781072975,MRCA,NDP2308757,FOR_SALE,SINGLE_FAMILY,8195  Run of the Knolls Ct,,San Diego,CA,92127,6,6,,6820,2005,10,5499000,2023-11-10,650000,2002-04-26,42689,806,33.0005,-117.148168,1,600,4
https://www.realtor.com/realestateandhomes-detail/2968162576,MRCA,DW23209418,FOR_SALE,SINGLE_FAMILY,8417  Macawa Ave,,San Diego,CA,92123,3,1,,900,1954,10,830000,2023-11-10,360000,2013-04-19,6600,922,32.800192,-117.146211,1,0,1
https://www.realtor.com/realestateandhomes-detail/1661074164,SDCA,230022207,FOR_SALE,MULTI_FAMILY,5129  Remington Rd,,San Diego,CA,92115,9,5,,3241,1957,10,1899900,2023-11-10,950000,2022-07-15,6800,586,32.775893,-117.084304,2,0,
https://www.realtor.com/realestateandhomes-detail/1821490778,SDCA,230022198,FOR_SALE,CONDOS,645  Front St,Unit 101,San Diego,CA,92101,2,3,,2150,2003,10,1499999,2023-11-10,1585000,2022-06-02,59242,698,32.712015,-117.164229,2,1200,2
https://www.realtor.com/realestateandhomes-detail/2197306343,MRCA,NDP2308755,FOR_SALE,CONDOS,5220  Grand Del Mar Way,,San Diego,CA,92130,3,3,1,4543,2008,10,325000,2023-11-10,,,,72,32.940568,-117.199673,2,1654,2
https://www.realtor.com/realestateandhomes-detail/2518898894,SDCA,230022193,FOR_SALE,SINGLE_FAMILY,4050  Olympic St,,San Diego,CA,92115,4,2,,2468,1963,10,1175000,2023-11-10,915000,2020-10-23,14810,476,32.752356,-117.068915,1,0,2
https://www.realtor.com/realestateandhomes-detail/2650217960,SDCA,230022192,FOR_SALE,CONDOS,321  10th Ave,Unit 1507,San Diego,CA,92101,2,2,,1103,2007,10,829000,2023-11-10,16000,2017-06-28,,752,32.708849,-117.155077,1,797,2
https://www.realtor.com/realestateandhomes-detail/1789750315,SDCA,230022176,FOR_SALE,SINGLE_FAMILY,4390  Rolfe Rd,,San Diego,CA,92117,3,2,,1396,1961,10,1025000,2023-11-10,800000,2021-11-05,,734,32.82299,-117.200646,1,,2
https://www.realtor.com/realestateandhomes-detail/1151766856,SDCA,230022185,FOR_SALE,SINGLE_FAMILY,1287  Silverado St,,La Jolla,CA,92037,3,3,1,2847,1995,10,5090000,2023-11-10,2000000,2001-12-26,9763,1788,32.847243,-117.269946,1,0,2
https://www.realtor.com/realestateandhomes-detail/2678669362,SDCA,230022187,FOR_SALE,SINGLE_FAMILY,4355  Rialto St,Apt 5,San Diego,CA,92107,2,2,,872,1984,10,649000,2023-11-10,438000,2019-05-13,,744,32.751826,-117.230456,1,187,1
https://www.realtor.com/realestateandhomes-detail/2102352784,SDCA,230022174,FOR_SALE,SINGLE_FAMILY,636-38  Nautilus St,,La Jolla,CA,92037,8,5,,2264,1956,10,3500000,2023-11-10,91000,1976-07-21,9709,1546,32.832532,-117.274861,1,0,4
https://www.realtor.com/realestateandhomes-detail/9963036541,SDCA,230022173,FOR_SALE,MOBILE,1951  47th St,Spc 28,San Diego,CA,92102,3,2,,1300,2023,10,289900,2023-11-10,,,,223,32.72641,-117.092155,1,,
https://www.realtor.com/realestateandhomes-detail/2092354721,SDCA,230022166,FOR_SALE,CONDOS,253  10th Ave,Unit 727,San Diego,CA,92101,1,1,,800,2006,10,569000,2023-11-10,340000,2018-05-24,42689,711,32.707996,-117.154961,1,747,1
https://www.realtor.com/realestateandhomes-detail/9000943183,SDCA,230022165,FOR_SALE,MOBILE,2780  Island Ave,,San Diego,CA,92102,2,1,,784,1985,10,53988,2023-11-10,,,,69,32.710691,-117.134326,1,0,
https://www.realtor.com/realestateandhomes-detail/2277768682,SDCA,230022163,FOR_SALE,SINGLE_FAMILY,4135  Caminito Cassis,,San Diego,CA,92122,4,3,,2366,1987,10,1899000,2023-11-10,467500,1998-11-02,5315,803,32.857006,-117.223995,2,95,3
https://www.realtor.com/realestateandhomes-detail/2555312457,MRCA,PTP2305590,FOR_SALE,CONDOS,525  11th Ave,Unit 1303,San Diego,CA,92101,1,1,,754,2004,10,489000,2023-11-10,332000,2015-10-19,,649,32.710897,-117.154195,1,525,1
https://www.realtor.com/realestateandhomes-detail/2067347469,SDCA,230022160,FOR_SALE,SINGLE_FAMILY,4820  Aragon Dr,,San Diego,CA,92115,3,2,,1539,1948,10,925000,2023-11-10,595000,2019-01-22,,601,32.765847,-117.057938,1,0,2
https://www.realtor.com/realestateandhomes-detail/2655244674,MRCA,OC23206534,FOR_SALE,CONDOS,101  Market St,Unit 312,San Diego,CA,92101,1,1,,689,2005,10,485000,2023-11-10,,,59324,704,32.71092,-117.163309,1,572,1
https://www.realtor.com/realestateandhomes-detail/2352818254,MRCA,PTP2305505,FOR_SALE,CONDOS,3688  1st Ave,Unit 16,San Diego,CA,92103,1,1,,707,1969,10,570000,2023-11-10,255000,2011-03-16,,806,32.744822,-117.164203,1,298,1
https://www.realtor.com/realestateandhomes-detail/2184173050,MRCA,PTP2305515,FOR_SALE,SINGLE_FAMILY,6819  Tuxedo Rd,,San Diego,CA,92119,4,4,1,2661,1980,10,1266000,2023-11-10,150000,1984-10-15,8533,476,32.809678,-117.049706,2,0,2
https://www.realtor.com/realestateandhomes-detail/1305474317,MRCA,PTP2305586,FOR_SALE,SINGLE_FAMILY,3694  Marzo St,,San Diego,CA,92154,3,2,,1368,1970,10,769500,2023-11-10,29000,1977-05-18,5500,563,32.570606,-117.056281,1,0,2
https://www.realtor.com/realestateandhomes-detail/1743615078,SDCA,230022154,FOR_SALE,MULTI_FAMILY,4018-4020  Fond Du Lac Ave,,San Diego,CA,92117,6,3,,2000,1954,10,1399900,2023-11-10,805000,2021-07-15,6157,700,32.834872,-117.203147,1,,2
https://www.realtor.com/realestateandhomes-detail/1718664597,SDCA,230022149,FOR_SALE,SINGLE_FAMILY,11429  Scripps Creek Dr,,San Diego,CA,92131,4,2,1,1913,1998,10,1370000,2023-11-10,810000,2017-09-12,4216,716,32.926363,-117.088979,2,42,2
https://www.realtor.com/realestateandhomes-detail/2570784458,SDCA,230022145,FOR_SALE,SINGLE_FAMILY,2732  Nipoma St,,San Diego,CA,92106,4,3,,2642,1955,10,2649000,2023-11-10,2200000,2021-06-01,11761,1003,32.747873,-117.225171,2,0,1
https://www.realtor.com/realestateandhomes-detail/2396378410,SDCA,230022142,FOR_SALE,CONDOS,1325  Pacific Hwy,Unit 2007,San Diego,CA,92101,3,2,,1474,2009,10,2099000,2023-11-10,1150000,2009-06-23,65340,1424,32.719263,-117.170517,1,1228,2
https://www.realtor.com/realestateandhomes-detail/2379371843,MRCA,PTP2305583,FOR_SALE,MULTI_FAMILY,930  21st St,,San Diego,CA,92102,5,6,,2535,1880,10,1575000,2023-11-10,,,5284,621,32.71519,-117.145223,,0,
https://www.realtor.com/realestateandhomes-detail/2624339256,SDCA,230022136,FOR_SALE,MULTI_FAMILY,4338  Cherokee Ave,,San Diego,CA,92104,,5,,,1927,10,1994000,2023-11-10,1395000,2022-06-30,6192,,32.756013,-117.115004,1,0,
https://www.realtor.com/realestateandhomes-detail/2417274700,SDCA,230022135,FOR_SALE,SINGLE_FAMILY,8999  Ellingham St,,San Diego,CA,92129,4,3,,2219,1980,10,1200000,2023-11-10,,,,541,32.965102,-117.132486,2,0,2
https://www.realtor.com/realestateandhomes-detail/2864440116,MRCA,NDP2308509,FOR_SALE,SINGLE_FAMILY,4914  Caminito Vista Lujo,,San Diego,CA,92130,4,2,1,2738,1989,10,1998000,2023-11-10,1300000,2020-08-24,5000,730,32.9421,-117.211084,2,474,2
https://www.realtor.com/realestateandhomes-detail/2099284382,SDCA,230022130,FOR_SALE,MULTI_FAMILY,6965  Saranac St,,San Diego,CA,92115,13,7,1,4386,2023,10,2599000,2023-11-10,782500,2022-01-24,,593,32.770533,-117.047775,2,,
https://www.realtor.com/realestateandhomes-detail/1137559604,SDCA,230022085,FOR_SALE,TOWNHOMES,4538  Northern Moon Way,,San Diego,CA,92154,3,3,,1428,2004,10,599000,2023-11-10,,,,419,32.572836,-117.036924,3,220,2
https://www.realtor.com/realestateandhomes-detail/2978063944,MRCA,PTP2305578,FOR_SALE,CONDOS,3776  Alabama St,Unit 205,San Diego,CA,92104,1,1,,378,1981,10,299000,2023-11-10,12220,1989-09-07,,791,32.747357,-117.142715,1,355,
https://www.realtor.com/realestateandhomes-detail/1496097837,MRCA,PTP2305574,FOR_SALE,SINGLE_FAMILY,7430  Ballinger Ave,,San Diego,CA,92119,4,2,,1845,1967,10,999000,2023-11-10,17000,1973-06-27,6100,541,32.815236,-117.014227,2,0,2
https://www.realtor.com/realestateandhomes-detail/2397497827,SDCA,230022121,FOR_SALE,MULTI_FAMILY,3630-32  37th St,,San Diego,CA,92105,4,3,,,1978,10,1349999,2023-11-10,122000,1995-03-20,6631,,32.744707,-117.113523,1,0,
https://www.realtor.com/realestateandhomes-detail/1815243399,SDCA,230022120,FOR_SALE,SINGLE_FAMILY,12122  Royal Birkdale Row,Unit 305,San Diego,CA,92128,3,2,1,1464,1987,10,695000,2023-11-10,715000,2022-05-27,75359,475,33.001336,-117.071312,3,836,2
https://www.realtor.com/realestateandhomes-detail/1968503669,SDCA,230022117,FOR_SALE,SINGLE_FAMILY,1241  Tourmaline St,,San Diego,CA,92109,5,4,,2719,1959,11,2750000,2023-11-09,1375000,2014-12-17,6100,1011,32.808427,-117.250253,2,,2
https://www.realtor.com/realestateandhomes-detail/2134014467,MRCA,NDP2308729,FOR_SALE,SINGLE_FAMILY,4076  Mount Bross Ave,,San Diego,CA,92111,3,2,,1158,1959,11,997000,2023-11-09,258500,2000-11-16,5700,861,32.815837,-117.186282,1,0,2
https://www.realtor.com/realestateandhomes-detail/1982933475,SDCA,230022114,FOR_SALE,CONDOS,530  K St,Unit 213,San Diego,CA,92101,2,2,,943,2005,11,735000,2023-11-09,700000,2022-08-05,30056,779,32.708649,-117.159647,1,752,2
https://www.realtor.com/realestateandhomes-detail/1015222852,SDCA,230022113,FOR_SALE,CONDOS,2556  Chicago St,Unit 8,San Diego,CA,92110,1,1,,572,1962,11,504000,2023-11-09,195000,2013-08-06,24829,881,32.789136,-117.205001,1,305,
https://www.realtor.com/realestateandhomes-detail/1206682303,MRCA,PTP2305322,FOR_SALE,SINGLE_FAMILY,590  Maitland Ave,,San Diego,CA,92154,3,2,,1280,1961,11,754900,2023-11-09,485000,2019-03-08,5400,590,32.585427,-117.056763,1,0,
https://www.realtor.com/realestateandhomes-detail/9037766670,SDCA,230022107,FOR_SALE,CONDOS,207  5th Ave,Unit 914,San Diego,CA,92101,0,,,311,2008,11,295000,2023-11-09,,,52708,949,32.707745,-117.159615,1,712,
https://www.realtor.com/realestateandhomes-detail/1471178324,SDCA,230022101,FOR_SALE,CONDOS,13006  Paseo Del Verano,,San Diego,CA,92128,2,2,,1431,1978,11,699999,2023-11-09,340000,2004-10-27,,489,33.031083,-117.049239,1,465,1
https://www.realtor.com/realestateandhomes-detail/2518670805,SDCA,230022100,FOR_SALE,CONDOS,4198  Mount Alifan Pl,Unit O,San Diego,CA,92111,2,2,,1140,1973,11,579995,2023-11-09,305000,2017-05-23,,509,32.816513,-117.179159,1,495,
https://www.realtor.com/realestateandhomes-detail/1290960195,SDCA,230022099,FOR_SALE,CONDOS,6235  Celeste Way,,San Diego,CA,92111,3,1,1,1176,1972,11,696000,2023-11-09,365000,2006-11-02,1582,592,32.787924,-117.182431,2,330,2
https://www.realtor.com/realestateandhomes-detail/2815484009,MRCA,NDP2308724,FOR_SALE,SINGLE_FAMILY,3258  Mohican Ave,,San Diego,CA,92117,3,2,,1120,1957,11,1075000,2023-11-09,,,5700,960,32.799939,-117.199806,1,0,2
https://www.realtor.com/realestateandhomes-detail/1366775448,SDCA,230022098,FOR_SALE,CONDOS,575  6th Ave,Unit 1304,San Diego,CA,92101,2,1,1,960,2007,11,915000,2023-11-09,755000,2007-07-26,,953,32.711158,-117.158756,1,757,1
https://www.realtor.com/realestateandhomes-detail/1075898441,SDCA,230022096,FOR_SALE,SINGLE_FAMILY,9525  Seltzer Ct,,San Diego,CA,92123,3,2,,1470,1959,11,1195000,2023-11-09,675000,2023-04-24,7000,813,32.797796,-117.121755,1,0,2
https://www.realtor.com/realestateandhomes-detail/1953067345,MRCA,WS23207983,FOR_SALE,SINGLE_FAMILY,111  Los Alamos Dr,,San Diego,CA,92114,3,1,,1134,1952,11,599000,2023-11-09,350000,2004-06-07,6500,528,32.70362,-117.073776,1,0,1
https://www.realtor.com/realestateandhomes-detail/2154844754,SDCA,230022093,FOR_SALE,TOWNHOMES,9989  Lemonwood Ln,,San Diego,CA,92124,3,1,1,1521,1973,11,815000,2023-11-09,118500,1987-03-31,1810,536,32.828341,-117.111065,2,320,2
https://www.realtor.com/realestateandhomes-detail/1734501950,SDCA,230022091,FOR_SALE,SINGLE_FAMILY,5472  Gilbert Dr,,San Diego,CA,92115,3,1,,1708,1929,11,939000,2023-11-09,240000,2001-12-28,,550,32.758976,-117.076683,1,0,2
https://www.realtor.com/realestateandhomes-detail/1440287976,MRCA,PTP2305566,FOR_SALE,SINGLE_FAMILY,1336  29th St,,San Diego,CA,92102,2,2,,1223,1922,11,1200000,2023-11-09,97000,1988-05-20,4971,981,32.719673,-117.132367,1,0,1
https://www.realtor.com/realestateandhomes-detail/2440342287,SDCA,230022090,FOR_SALE,SINGLE_FAMILY,4121  60th St,,San Diego,CA,92115,3,1,,872,1950,11,749000,2023-11-09,425000,2018-11-27,6400,859,32.75293,-117.066718,1,0,1
https://www.realtor.com/realestateandhomes-detail/2677481773,SDCA,230022089,FOR_SALE,SINGLE_FAMILY,7462  LA Mantanza,,San Diego,CA,92127,5,5,,4390,2003,11,2950000,2023-11-09,1263500,2003-12-16,14375,672,32.986757,-117.168204,2,360,3
https://www.realtor.com/realestateandhomes-detail/1970715107,SDCA,230022088,FOR_SALE,CONDOS,8455  Westmore Rd,Apt 104,San Diego,CA,92126,2,2,,866,1983,11,555000,2023-11-09,77000,2000-08-23,,641,32.917286,-117.141601,1,220,
https://www.realtor.com/realestateandhomes-detail/1182023653,SDCA,230022082,FOR_SALE,SINGLE_FAMILY,10936  Caminito Cuesta,,San Diego,CA,92131,4,2,1,1903,1995,11,1125000,2023-11-09,202000,1994-10-28,3821,591,32.921265,-117.064345,2,200,2
https://www.realtor.com/realestateandhomes-detail/2522823190,SDCA,230021945,FOR_SALE,SINGLE_FAMILY,2225  Etiwanda St,,San Diego,CA,92107,1,1,,678,1931,11,999000,2023-11-09,682000,2019-11-14,3998,1473,32.747185,-117.237778,1,0,
https://www.realtor.com/realestateandhomes-detail/2315676369,MRCA,NDP2308711,FOR_SALE,SINGLE_FAMILY,9857  Dauntless St,,San Diego,CA,92126,3,2,,1263,1986,11,1075000,2023-11-09,203000,1998-06-15,11670,851,32.925657,-117.118733,1,0,2
https://www.realtor.com/realestateandhomes-detail/1313399550,SDCA,230022074,FOR_SALE,CONDOS,321  10th Ave,Unit 706,San Diego,CA,92101,1,1,,736,2007,11,589000,2023-11-09,469000,2017-10-20,55321,800,32.708849,-117.155077,1,749,1
https://www.realtor.com/realestateandhomes-detail/2048338690,SDCA,230022072,FOR_SALE,TOWNHOMES,10233  Caminito Surabaya,,San Diego,CA,92131,3,2,1,1547,1978,11,875000,2023-11-09,620000,2018-02-09,190357,566,32.904658,-117.107034,2,450,1
https://www.realtor.com/realestateandhomes-detail/1440287976,MRCA,PTP2305558,FOR_SALE,MULTI_FAMILY,1336  29th St,,San Diego,CA,92102,1,2,,1223,1922,11,1200000,2023-11-09,97000,1988-05-20,4971,981,32.719673,-117.132367,,0,1
https://www.realtor.com/realestateandhomes-detail/1869852495,SDCA,230022070,FOR_SALE,SINGLE_FAMILY,3755  Florence St,,San Diego,CA,92113,2,1,,821,1925,11,599000,2023-11-09,425000,2023-05-12,5749,730,32.697798,-117.113395,1,0,1
https://www.realtor.com/realestateandhomes-detail/1611037376,MRCA,GD23207633,FOR_SALE,CONDOS,6757  Friars Rd,Unit 35,San Diego,CA,92108,1,1,1,882,1979,11,575000,2023-11-09,430000,2021-08-20,99012,652,32.76747,-117.173501,1,496,1
https://www.realtor.com/realestateandhomes-detail/2874933184,SDCA,230022067,FOR_SALE,CONDOS,530  K St,Unit 520,San Diego,CA,92101,1,1,,815,2005,11,599900,2023-11-09,471000,2021-03-02,,736,32.708649,-117.159647,1,699,1
https://www.realtor.com/realestateandhomes-detail/2362568266,SDCA,230022062,FOR_SALE,SINGLE_FAMILY,4129  45th St,,San Diego,CA,92105,4,3,,1296,1930,11,849500,2023-11-09,179000,2009-04-30,,655,32.751941,-117.097322,1,0,1
https://www.realtor.com/realestateandhomes-detail/2328442597,SDCA,230022061,FOR_SALE,CONDOS,1431  Pacific Hwy,Unit 102,Downtown,CA,92101,1,1,,615,2009,11,674900,2023-11-09,625000,2022-03-11,,1097,32.720325,-117.170484,1,837,1
https://www.realtor.com/realestateandhomes-detail/1523946868,SDCA,230022053,FOR_SALE,CONDOS,10325  Caminito Cuervo,Unit 197,San Diego,CA,92108,2,2,,1037,1978,11,725000,2023-11-09,425000,2018-12-20,,699,32.787252,-117.112606,1,400,
https://www.realtor.com/realestateandhomes-detail/1264426875,SDCA,230022045,FOR_SALE,SINGLE_FAMILY,12650  Camino Emparrado,,San Diego,CA,92128,2,2,,1786,1977,11,1065000,2023-11-09,249000,1999-06-04,,596,33.040091,-117.057831,1,32,2
https://www.realtor.com/realestateandhomes-detail/1576196868,SDCA,230022044,FOR_SALE,SINGLE_FAMILY,928  42nd St,,San Diego,CA,92102,3,1,,868,1952,11,585000,2023-11-09,377000,2018-11-15,2700,674,32.715604,-117.104581,1,0,
https://www.realtor.com/realestateandhomes-detail/1995610561,SDCA,230022034,FOR_SALE,CONDOS,11170  Provencal Pl,,San Diego,CA,92128,2,2,,1068,1992,11,734500,2023-11-09,326000,2003-01-07,79715,688,32.966959,-117.088103,1,340,1
https://www.realtor.com/realestateandhomes-detail/2628110850,MRCA,NDP2308703,FOR_SALE,CONDOS,3631  Ocean Front Walk,Apt 3,San Diego,CA,92109,2,2,,1037,1985,11,1895000,2023-11-09,,,,1827,32.780981,-117.253217,1,355,
https://www.realtor.com/realestateandhomes-detail/1471557403,SDCA,230022027,FOR_SALE,SINGLE_FAMILY,17208  Holly Leaf Ct,,San Diego,CA,92127,5,5,1,4790,2001,11,3499000,2023-11-09,740000,2000-04-27,30492,730,33.027529,-117.123654,1,235,4
https://www.realtor.com/realestateandhomes-detail/2780889842,SDCA,230022015,FOR_SALE,SINGLE_FAMILY,1570  Guy St,,San Diego,CA,92103,3,2,,1436,1959,12,1399000,2023-11-08,475000,2003-02-14,,974,32.743409,-117.177361,1,0,2
https://www.realtor.com/realestateandhomes-detail/1944316572,MRCA,PTP2305544,FOR_SALE,CONDOS,6680  Canopy Ridge Ln,Unit 2,San Diego,CA,92121,3,2,,1465,2014,12,939900,2023-11-08,700000,2020-11-10,,642,32.915631,-117.179598,1,358,2
https://www.realtor.com/realestateandhomes-detail/2467802577,SDCA,230022014,FOR_SALE,CONDOS,5383  Chelsea St,Unit 204,La Jolla,CA,92037,2,2,,1385,1970,12,1665000,2023-11-08,95000,2013-01-09,,1202,32.810437,-117.267063,1,690,1
https://www.realtor.com/realestateandhomes-detail/2935369952,MRCA,NDP2308699,FOR_SALE,CONDOS,575  6th Ave,Unit 213,San Diego,CA,92101,0,1,,497,2007,12,485000,2023-11-08,339000,2007-06-26,,976,32.711158,-117.158756,1,661,1
https://www.realtor.com/realestateandhomes-detail/2706160255,SDCA,230022010,FOR_SALE,SINGLE_FAMILY,3211-15  Van Dyke,,San Diego,CA,92105,5,5,,2084,1961,12,1350000,2023-11-08,815000,2022-03-11,,648,32.73955,-117.103138,1,0,1
https://www.realtor.com/realestateandhomes-detail/1061144277,MRCA,PTP2305541,FOR_SALE,CONDOS,700  Front St,Unit 1405,San Diego,CA,92101,2,2,1,2200,1985,12,2499000,2023-11-08,1150000,2019-05-29,,1136,32.713058,-117.165153,1,2097,1
https://www.realtor.com/realestateandhomes-detail/9728972537,SDCA,230022005,FOR_SALE,MULTI_FAMILY,4776-78  Del Monte Ave,,San Diego,CA,92107,5,4,,1858,2000,12,2498000,2023-11-08,,,6983,1344,32.7421,-117.249214,1,0,3
https://www.realtor.com/realestateandhomes-detail/2108353886,SDCA,230022002,FOR_SALE,SINGLE_FAMILY,5903  Balmoral Dr,,San Diego,CA,92114,3,2,,2061,1930,12,924999,2023-11-08,748000,2022-06-24,7227,449,32.707733,-117.070613,1,0,1
https://www.realtor.com/realestateandhomes-detail/2745395788,MRCA,NDP2308689,FOR_SALE,SINGLE_FAMILY,17155  Reflections Cir,,San Diego,CA,92127,4,4,1,4669,2009,12,4195000,2023-11-08,3500000,2022-01-14,45738,898,33.034562,-117.151913,2,570,4
https://www.realtor.com/realestateandhomes-detail/1137691671,SDCA,230021198,FOR_SALE,CONDOS,17161  Alva Rd,Unit 614,San Diego,CA,92127,2,2,,968,1994,24,638000,2023-10-27,630000,2022-08-18,,659,33.024029,-117.104407,1,466,1
https://www.realtor.com/realestateandhomes-detail/1023095749,SDCA,230021196,FOR_SALE,CONDOS,1514  7th Ave,Unit 502,San Diego,CA,92101,3,2,,1348,1982,24,849900,2023-10-27,142500,1989-04-03,,630,32.721318,-117.158678,1,894,2
https://www.realtor.com/realestateandhomes-detail/1894511177,SDCA,230021194,FOR_SALE,CONDOS,2812  Alta View Dr,Unit B,San Diego,CA,92139,3,2,,1170,1981,24,599000,2023-10-27,475000,2022-02-14,,512,32.674776,-117.041421,1,460,2
https://www.realtor.com/realestateandhomes-detail/2572270052,SDCA,230021192,FOR_SALE,SINGLE_FAMILY,5668  Desert View Dr,,La Jolla,CA,92037,3,2,,1793,1976,24,1750000,2023-10-27,83000,1977-01-28,,976,32.824318,-117.235141,1,0,2
https://www.realtor.com/realestateandhomes-detail/1055974338,MRCA,AR23199541,FOR_SALE,CONDOS,4165  Executive Dr,Unit F205,La Jolla,CA,92037,2,2,,1102,2000,24,979000,2023-10-27,417000,2010-05-10,180047,888,32.874477,-117.21731,1,565,2
https://www.realtor.com/realestateandhomes-detail/1831218932,SDCA,230021185,FOR_SALE,SINGLE_FAMILY,782  Castaway Cv,,San Diego,CA,92154,2,2,,1643,2005,24,599000,2023-10-27,510000,2021-08-05,68825,365,32.582751,-117.01908,3,246,1
https://www.realtor.com/realestateandhomes-detail/1489318584,SDCA,230021174,FOR_SALE,SINGLE_FAMILY,394  Coralwood Dr,,San Diego,CA,92114,3,2,,1361,1960,24,795000,2023-10-27,700000,2022-03-07,,584,32.697057,-117.031081,1,,2
https://www.realtor.com/realestateandhomes-detail/1259024658,SDCA,230021171,FOR_SALE,CONDOS,500 W Harbor Dr,Unit 1020,San Diego,CA,92101,2,2,,1184,1994,25,1099900,2023-10-26,,,,929,32.711002,-117.166382,1,1032,1
https://www.realtor.com/realestateandhomes-detail/2170708673,SDCA,230021170,FOR_SALE,SINGLE_FAMILY,2425  Wilbur Ave,,San Diego,CA,92109,4,3,,2804,1980,25,2995000,2023-10-26,2050000,2022-03-22,3900,1068,32.810387,-117.228172,3,,2
https://www.realtor.com/realestateandhomes-detail/2972317254,SDCA,230021168,FOR_SALE,MULTI_FAMILY,3129  Emerson St,,San Diego,CA,92106,6,4,,3004,2000,25,2250000,2023-10-26,27000,1971-05-10,5243,749,32.725135,-117.231129,2,0,4
https://www.realtor.com/realestateandhomes-detail/1466769571,SDCA,230021167,FOR_SALE,CONDOS,10718  Dabney Dr,Apt 78,San Diego,CA,92126,1,1,,598,1990,25,483000,2023-10-26,335000,2021-10-08,184259,808,32.909934,-117.161349,1,3360,
https://www.realtor.com/realestateandhomes-detail/1007012453,SDCA,230021164,FOR_SALE,CONDOS,3980  8th Ave,Unit 217,San Diego,CA,92103,0,1,,383,1972,25,396000,2023-10-26,218000,2017-06-20,,1034,32.749587,-117.157745,1,248,
https://www.realtor.com/realestateandhomes-detail/1043182092,SDCA,230021155,FOR_SALE,SINGLE_FAMILY,2558  F St,,San Diego,CA,92102,1,1,,504,1959,25,599000,2023-10-26,148000,2001-06-21,1488,1188,32.713905,-117.13888,1,0,
https://www.realtor.com/realestateandhomes-detail/2064570224,MRCA,NDP2308271,FOR_SALE,TOWNHOMES,3256  Via Marin,Unit 16,La Jolla,CA,92037,2,2,1,1074,1978,25,899995,2023-10-26,143000,1988-12-02,109771,838,32.856759,-117.2331,2,325,2
https://www.realtor.com/realestateandhomes-detail/2017052327,SDCA,230021149,FOR_SALE,SINGLE_FAMILY,2665  Imperial Ave,,San Diego,CA,92102,2,2,1,784,2009,25,729000,2023-10-26,135000,2009-12-31,3501,930,32.706058,-117.136691,1,0,
https://www.realtor.com/realestateandhomes-detail/2194670674,SDCA,230021148,FOR_SALE,SINGLE_FAMILY,2475  Beryl St,,San Diego,CA,92109,3,2,1,1717,1971,25,1570000,2023-10-26,810000,2018-11-07,3600,914,32.808688,-117.2263,2,0,2
https://www.realtor.com/realestateandhomes-detail/2093978097,MRCA,OC23199900,FOR_SALE,SINGLE_FAMILY,1979  Beryl St,,San Diego,CA,92109,2,1,,959,1949,25,1995000,2023-10-26,433000,2010-07-02,6800,2080,32.807604,-117.235572,1,0,1
https://www.realtor.com/realestateandhomes-detail/2101220438,SDCA,230021143,FOR_SALE,TOWNHOMES,5873  Menorca Dr,,San Diego,CA,92124,3,2,1,1741,1979,25,949000,2023-10-26,300000,2000-11-09,3556,545,32.837897,-117.096591,2,370,2
https://www.realtor.com/realestateandhomes-detail/2034315812,SDCA,230021138,FOR_SALE,MULTI_FAMILY,813-15  Diamond St,,Pacific Beach,CA,92109,2,2,,988,1925,25,2100000,2023-10-26,1700000,2022-07-22,,2126,32.799181,-117.255852,1,0,
https://www.realtor.com/realestateandhomes-detail/2037408396,SDCA,230021133,FOR_SALE,SINGLE_FAMILY,1978  Beryl St,,San Diego,CA,92109,2,2,,1193,1947,25,1695000,2023-10-26,79600,1977-07-01,6300,1421,32.808146,-117.235813,1,0,1
https://www.realtor.com/realestateandhomes-detail/1564584415,SDCA,230021118,FOR_SALE,SINGLE_FAMILY,2216  Starburst Ln,,San Diego,CA,92154,4,2,,1440,1988,25,848000,2023-10-26,320000,2014-06-10,5605,589,32.574494,-117.08577,1,0,2
https://www.realtor.com/realestateandhomes-detail/1729118626,SDCA,230021112,FOR_SALE,SINGLE_FAMILY,4304  Quapaw Ave,,San Diego,CA,92117,3,2,,1044,1956,25,1250000,2023-10-26,192000,2000-02-08,6400,1197,32.820982,-117.211815,1,0,2
https://www.realtor.com/realestateandhomes-detail/2715238624,SDCA,230021102,FOR_SALE,SINGLE_FAMILY,3693  Paul Jones Ave,,San Diego,CA,92117,2,2,,1027,2000,25,1375000,2023-10-26,,,,1339,32.805895,-117.211991,1,0,1
https://www.realtor.com/realestateandhomes-detail/1939005367,SDCA,230021098,FOR_SALE,CONDOS,801  Ash St,Unit 1703,San Diego,CA,92101,2,2,,1254,2006,25,849900,2023-10-26,410000,2009-10-05,,678,32.719653,-117.157163,1,941,1
https://www.realtor.com/realestateandhomes-detail/1243781512,SDCA,230021093,FOR_SALE,MULTI_FAMILY,1855-1857  Frankfort St,,San Diego,CA,92110,7,5,,3100,2023,25,2888888,2023-10-26,225000,1991-09-06,7300,932,32.779461,-117.202567,2,,4
https://www.realtor.com/realestateandhomes-detail/2061626215,SDCA,230021092,FOR_SALE,CONDOS,8672  Via Mallorca,Apt K,La Jolla,CA,92037,2,2,,978,1972,25,788000,2023-10-26,395000,2015-09-11,,806,32.864142,-117.234047,2,315,
https://www.realtor.com/realestateandhomes-detail/2902442786,SDCA,230021085,FOR_SALE,CONDOS,3980  8th Ave,Unit 106,San Diego,CA,92103,1,1,,641,1972,25,509000,2023-10-26,300000,2004-03-26,,794,32.749587,-117.157745,1,309,1
https://www.realtor.com/realestateandhomes-detail/1999760929,SDCA,230021079,FOR_SALE,SINGLE_FAMILY,421  17th St,,San Diego,CA,92101,3,3,,1315,2000,26,1250000,2023-10-25,435000,2010-06-21,4147,951,32.709698,-117.14825,1,0,
https://www.realtor.com/realestateandhomes-detail/1929652961,MRCA,PTP2305253,FOR_SALE,SINGLE_FAMILY,6874  Fuji St,,San Diego,CA,92139,4,2,,1400,1980,26,749900,2023-10-25,380000,2015-05-14,8575,536,32.68606,-117.045098,1,0,2
https://www.realtor.com/realestateandhomes-detail/9858708840,SDCA,230021077,FOR_SALE,TOWNHOMES,1014 S 44th St,,San Diego,CA,92113,3,2,1,1201,2023,26,649000,2023-10-25,,,8276,540,32.695733,-117.100398,2,299,2
https://www.realtor.com/realestateandhomes-detail/2827819036,SDCA,230021072,FOR_SALE,SINGLE_FAMILY,4733  Huron Ave,,San Diego,CA,92117,4,3,1,1870,1953,26,1449000,2023-10-25,727000,2016-03-16,6200,775,32.79561,-117.196388,1,,1
https://www.realtor.com/realestateandhomes-detail/2505520421,MRCA,PTP2305247,FOR_SALE,CONDOS,5980  Dandridge Ln,Unit 212,San Diego,CA,92115,1,1,,724,1985,26,398000,2023-10-25,105000,2012-02-03,,550,32.748496,-117.068241,3,538,1
https://www.realtor.com/realestateandhomes-detail/9107104032,SDCA,230021066,FOR_SALE,LAND,5150  Gordon Ln,Unit 9,San Diego,CA,92109,,,,,,26,2395000,2023-10-25,,,,,32.811086,-117.244991,,0,
https://www.realtor.com/realestateandhomes-detail/1358146501,SDCA,230021065,FOR_SALE,CONDOS,101  Market St,Unit 107,San Diego,CA,92101,2,2,1,1290,2002,26,775000,2023-10-25,375000,2011-03-14,59242,601,32.71092,-117.163309,2,694,1
https://www.realtor.com/realestateandhomes-detail/2837100028,SDCA,230021064,FOR_SALE,CONDOS,645  Front St,Unit 603,San Diego,CA,92101,2,2,1,1700,2003,26,1099900,2023-10-25,580000,2002-11-18,59242,647,32.712015,-117.164229,1,1136,2
https://www.realtor.com/realestateandhomes-detail/1216925944,SDCA,230021063,FOR_SALE,CONDOS,425 W Beech St,Unit 335,San Diego,CA,92101,1,1,,676,2004,26,479900,2023-10-25,415000,2021-10-07,60113,710,32.72038,-117.166942,1,759,1
https://www.realtor.com/realestateandhomes-detail/2157441997,MRCA,NDP2308325,FOR_SALE,SINGLE_FAMILY,4938  San Joaquin Dr,,San Diego,CA,92109,3,2,,1792,1991,26,2195000,2023-10-25,950000,2015-04-22,8100,1225,32.810906,-117.225571,1,0,2
https://www.realtor.com/realestateandhomes-detail/2183814912,MRCA,PTP2305239,FOR_SALE,SINGLE_FAMILY,2115  Mission Ave,,San Diego,CA,92116,3,3,,1269,1965,26,1200000,2023-10-25,1150000,2021-09-01,2020,946,32.759431,-117.142155,2,0,1
https://www.realtor.com/realestateandhomes-detail/9095438505,SDCA,230021039,FOR_SALE,LAND,,,San Diego,CA,92108,,,,,,26,10000000,2023-10-25,,,51401,,,,,0,
https://www.realtor.com/realestateandhomes-detail/1041396476,MRCA,PTP2305235,FOR_SALE,CONDOS,4060  Huerfano Ave,Unit 212,San Diego,CA,92117,0,1,,425,1972,26,389000,2023-10-25,60000,1990-12-10,,915,32.814973,-117.217676,1,479,
https://www.realtor.com/realestateandhomes-detail/1434500382,MRCA,NDP2308066,FOR_SALE,SINGLE_FAMILY,701  Cardiff St,,San Diego,CA,92114,3,2,,1148,1961,26,699990,2023-10-25,,,5900,610,32.71257,-117.024162,1,0,
https://www.realtor.com/realestateandhomes-detail/1283644698,SDCA,230021029,FOR_SALE,SINGLE_FAMILY,7575  Conestoga Way,,San Diego,CA,92120,3,2,,1359,1967,26,989000,2023-10-25,169000,1996-07-08,9200,728,32.806004,-117.074926,1,0,2
https://www.realtor.com/realestateandhomes-detail/2772989462,MRCA,PTP2305233,FOR_SALE,SINGLE_FAMILY,2675  Clove St,,San Diego,CA,92106,5,3,1,3206,1937,26,2599900,2023-10-25,,,6900,811,32.743344,-117.220519,2,0,2
https://www.realtor.com/realestateandhomes-detail/1672642197,SDCA,230021027,FOR_SALE,SINGLE_FAMILY,15577  Bristol Ridge Ter,,San Diego,CA,92127,4,3,,2771,2006,26,1800000,2023-10-25,755000,2006-11-17,5295,650,33.01722,-117.144394,2,183,2
https://www.realtor.com/realestateandhomes-detail/2085558989,SDCA,230021018,FOR_SALE,CONDOS,877  Island Ave,Unit 701,San Diego,CA,92101,0,2,,1538,2003,26,1349000,2023-10-25,840000,2014-03-07,40075,877,32.710054,-117.156924,1,841,2
https://www.realtor.com/realestateandhomes-detail/9545019393,MRCA,NDP2308308,FOR_SALE,MOBILE,3340  Del Sol Blvd,Spc 244,San Diego,CA,92154,2,2,,1440,1980,26,137500,2023-10-25,,,1714522,95,32.575199,-117.061539,1,0,
https://www.realtor.com/realestateandhomes-detail/1886324042,MRCA,PTP2305231,FOR_SALE,MULTI_FAMILY,5258  Groveland Dr,,San Diego,CA,92114,,,,1200,1932,26,679900,2023-10-25,645000,2022-05-24,9749,567,32.707939,-117.081708,,0,2
https://www.realtor.com/realestateandhomes-detail/2557294187,SDCA,230021014,FOR_SALE,SINGLE_FAMILY,3851  Centraloma Dr,,San Diego,CA,92107,6,3,1,2651,2016,26,2050000,2023-10-25,900000,2017-09-05,7400,773,32.73743,-117.232228,2,0,3
https://www.realtor.com/realestateandhomes-detail/1568367902,SDCA,230021012,FOR_SALE,SINGLE_FAMILY,12472  Lomica Dr,,San Diego,CA,92128,2,2,,1770,1969,26,1098000,2023-10-25,420000,2012-01-17,6200,620,33.009222,-117.060452,1,43,2
https://www.realtor.com/realestateandhomes-detail/2113453906,MRCA,NDP2308302,FOR_SALE,MULTI_FAMILY,4455-61  52nd St,,San Diego,CA,92115,12,8,,5684,1959,26,3600000,2023-10-25,1211500,2015-03-26,6250,633,32.758399,-117.083291,,0,
https://www.realtor.com/realestateandhomes-detail/2781821491,MRCA,PTP2305227,FOR_SALE,SINGLE_FAMILY,711  Bush St,,San Diego,CA,92103,0,1,,400,1908,26,1350000,2023-10-25,1265000,2006-08-10,9664,3375,32.747046,-117.169931,1,0,
https://www.realtor.com/realestateandhomes-detail/1096397858,MRCA,PTP2305223,FOR_SALE,CONDOS,700  Front St,Unit 2505,San Diego,CA,92101,2,2,1,2580,1986,27,1949999,2023-10-24,1800000,2021-06-24,,756,32.713058,-117.165153,1,2269,2
https://www.realtor.com/realestateandhomes-detail/1348006619,MRCA,NDP2308298,FOR_SALE,SINGLE_FAMILY,3945  Wildwood Rd,,San Diego,CA,92107,4,3,1,3356,2023,27,3395000,2023-10-24,555000,2020-09-15,5865,1012,32.734566,-117.238655,1,0,2
https://www.realtor.com/realestateandhomes-detail/1414905375,SDCA,230020996,FOR_SALE,LAND,7554  Northen Lgts,Unit 20,San Diego,CA,92127,,,,,,27,2500000,2023-10-24,550000,2002-12-10,112385,,32.999748,-117.168307,,600,
https://www.realtor.com/realestateandhomes-detail/1449306334,SDCA,230013996,FOR_SALE,MULTI_FAMILY,2912  Broadway,,San Diego,CA,92102,,,,,2010,27,2800000,2023-10-24,,,10574,,32.716154,-117.131456,2,0,
https://www.realtor.com/realestateandhomes-detail/1958599641,SDCA,230020991,FOR_SALE,SINGLE_FAMILY,5740  La Jolla Corona Dr,,La Jolla,CA,92037,5,6,2,8810,1998,27,17500000,2023-10-24,,,17952,1986,32.816814,-117.26551,3,95,4
https://www.realtor.com/realestateandhomes-detail/1633742147,SDCA,230020987,FOR_SALE,CONDOS,1080  Park Blvd,Unit 506,San Diego,CA,92101,0,1,,462,2007,27,349900,2023-10-24,250000,2017-11-30,,757,32.716388,-117.154124,1,727,1
https://www.realtor.com/realestateandhomes-detail/1531422679,SDCA,230020980,FOR_SALE,MULTI_FAMILY,4603-05  Bermuda Ave,,San Diego,CA,92107,6,5,,3000,1980,27,2750000,2023-10-24,1325000,2005-04-22,,917,32.735013,-117.251015,3,0,
https://www.realtor.com/realestateandhomes-detail/9345213966,MRCA,PTP2305218,FOR_SALE,LAND,,,San Diego,CA,92154,,,,,,27,130000,2023-10-24,,,39640,,,,,0,
https://www.realtor.com/realestateandhomes-detail/2416125754,SDCA,230020974,FOR_SALE,SINGLE_FAMILY,6151  LA Pintura Dr,,La Jolla,CA,92037,5,5,2,5218,2018,27,6388000,2023-10-24,2998000,2019-07-03,29185,1224,32.826756,-117.250857,2,0,5
https://www.realtor.com/realestateandhomes-detail/2759648255,SDCA,230020972,FOR_SALE,SINGLE_FAMILY,3033  Voltaire St,,San Diego,CA,92106,3,2,1,1684,1950,27,1499000,2023-10-24,625000,2013-03-29,3269,890,32.734833,-117.221381,2,,1
https://www.realtor.com/realestateandhomes-detail/2074612889,SDCA,230020964,FOR_SALE,LAND,1456  Nautilus St,Unit 1,La Jolla,CA,92037,,,,,,27,6595000,2023-10-24,2117000,2023-01-09,87120,,32.833652,-117.261847,,,
https://www.realtor.com/realestateandhomes-detail/9159028791,SDCA,230020963,FOR_SALE,SINGLE_FAMILY,5122  Edgeworth Rd,,San Diego,CA,92109,5,3,,2750,1966,27,2499000,2023-10-24,1100000,2013-09-27,,909,32.81239,-117.235509,2,0,3
https://www.realtor.com/realestateandhomes-detail/2947468605,SDCA,230020962,FOR_SALE,CONDOS,3450  3rd Ave,Unit 210,San Diego,CA,92103,2,2,,1247,1990,27,800000,2023-10-24,195000,1999-04-05,,642,32.741088,-117.1626,1,787,1
https://www.realtor.com/realestateandhomes-detail/2439422011,SDCA,230020960,FOR_SALE,SINGLE_FAMILY,1776  Cable St,,San Diego,CA,92107,4,3,,2218,2022,27,2695000,2023-10-24,2250000,2022-02-10,3170,1215,32.743883,-117.251309,2,0,2
https://www.realtor.com/realestateandhomes-detail/1332863440,SDCA,230020952,FOR_SALE,CONDOS,5046  Brighton Ave,,San Diego,CA,92107,1,1,,364,1950,27,649000,2023-10-24,314000,2014-08-19,,1783,32.750929,-117.248885,1,108,
https://www.realtor.com/realestateandhomes-detail/1662988607,MRCA,PTP2305207,FOR_SALE,CONDOS,3775  Georgia St,Apt 301,San Diego,CA,92103,2,2,,915,1990,27,740000,2023-10-24,297000,2012-01-20,,809,32.746937,-117.144616,1,442,2
https://www.realtor.com/realestateandhomes-detail/2023080787,MRCA,PTP2305205,FOR_SALE,MULTI_FAMILY,4216-18  Chamoune Ave,,San Diego,CA,92115,6,2,,1826,1940,27,1099900,2023-10-24,6000,1976-05-07,4693,602,32.753581,-117.096831,,0,
https://www.realtor.com/realestateandhomes-detail/2158448178,SDCA,230020942,FOR_SALE,CONDOS,4600  Lamont St,Unit 319,San Diego,CA,92109,0,1,,420,1975,27,449000,2023-10-24,61000,1998-01-14,428219,1069,32.802654,-117.23719,1,486,1
https://www.realtor.com/realestateandhomes-detail/1628405812,SDCA,230020939,FOR_SALE,TOWNHOMES,4477  Mentone St,Unit 210,San Diego,CA,92107,2,1,1,928,1968,28,615000,2023-10-23,425000,2020-09-03,15682,663,32.751718,-117.233862,2,499,1
https://www.realtor.com/realestateandhomes-detail/1759023582,SDCA,230020938,FOR_SALE,SINGLE_FAMILY,3257  L St,,San Diego,CA,92102,3,3,,1108,1930,28,825000,2023-10-23,715000,2021-12-22,6040,745,32.707428,-117.1236,1,0,
https://www.realtor.com/realestateandhomes-detail/1700034775,SDCA,230020936,FOR_SALE,CONDOS,7274  Shoreline Dr,Unit 120,San Diego,CA,92122,2,2,,1019,1990,28,799000,2023-10-23,508000,2007-03-05,,784,32.865037,-117.202186,1,345,1
https://www.realtor.com/realestateandhomes-detail/2783208553,MRCA,PTP2305190,FOR_SALE,MULTI_FAMILY,4220-22  Chamoune Ave,,San Diego,CA,92115,3,2,,1200,1940,28,999900,2023-10-23,23500,1975-05-28,4693,833,32.753684,-117.09683,,0,
https://www.realtor.com/realestateandhomes-detail/1155244816,SDCA,230020923,FOR_SALE,CONDOS,7425  Charmant Dr,Unit 2703,San Diego,CA,92122,1,1,,704,1987,28,600000,2023-10-23,380000,2018-05-22,,852,32.864555,-117.228144,1,409,1
https://www.realtor.com/realestateandhomes-detail/1261868671,SDCA,230020922,FOR_SALE,CONDOS,1435  India St,Unit 212,San Diego,CA,92101,2,2,,842,2005,28,774900,2023-10-23,349000,2013-02-20,,920,32.720241,-117.167996,1,456,1
https://www.realtor.com/realestateandhomes-detail/1067069562,MRCA,NDP2308260,FOR_SALE,SINGLE_FAMILY,2727  Broadway,,San Diego,CA,92102,4,2,,2090,1928,28,1775000,2023-10-23,695000,2015-06-23,5458,849,32.715575,-117.135372,1,0,
https://www.realtor.com/realestateandhomes-detail/1913625457,SDCA,230020907,FOR_SALE,SINGLE_FAMILY,4552  44th St,,San Diego,CA,92115,2,2,,1054,1938,28,1049500,2023-10-23,28000,1974-01-09,4800,996,32.760199,-117.099266,1,0,1
https://www.realtor.com/realestateandhomes-detail/1039980370,SDCA,230020905,FOR_SALE,SINGLE_FAMILY,3057  Conner Way,,San Diego,CA,92117,4,2,1,1930,1968,28,1695000,2023-10-23,1385000,2021-10-13,6000,878,32.817489,-117.218044,1,0,2
https://www.realtor.com/realestateandhomes-detail/1162283403,SDCA,230020904,FOR_SALE,SINGLE_FAMILY,225  Via Del Norte,,La Jolla,CA,92037,4,3,2,3495,1949,28,8450000,2023-10-23,4200000,2015-05-19,7828,2418,32.822319,-117.27908,2,0,2
https://www.realtor.com/realestateandhomes-detail/2416641149,MRCA,SW23195743,FOR_SALE,SINGLE_FAMILY,3650  Roselawn Ave,,San Diego,CA,92105,2,2,,760,1928,28,739990,2023-10-23,408000,2018-09-24,6251,974,32.744752,-117.093448,1,0,1
https://www.realtor.com/realestateandhomes-detail/1859482780,MRCA,OC23197004,FOR_SALE,CONDOS,700 W E St,Unit 806,San Diego,CA,92101,2,2,,1548,2008,28,1180000,2023-10-23,930000,2016-04-28,51963,762,32.715121,-117.16958,1,1503,2
https://www.realtor.com/realestateandhomes-detail/9077121182,MRCA,PTP2305185,FOR_SALE,CONDOS,205  5th Ave,Unit 934,San Diego,CA,92101,1,1,,318,2008,28,299000,2023-10-23,,,,940,32.707466,-117.159798,1,713,
https://www.realtor.com/realestateandhomes-detail/1781822146,SDCA,230020895,FOR_SALE,SINGLE_FAMILY,743  Nautilus St,,La Jolla,CA,92037,3,1,1,1252,1954,29,2295000,2023-10-22,750000,2012-05-24,6075,1833,32.832381,-117.273151,1,0,1
https://www.realtor.com/realestateandhomes-detail/9447941434,SDCA,230020893,FOR_SALE,TOWNHOMES,4089  Utah St,,San Diego,CA,92104,3,3,1,1563,2023,29,1296500,2023-10-22,,,,829,32.751952,-117.132459,3,545,1
https://www.realtor.com/realestateandhomes-detail/1186446897,SDCA,230020888,FOR_SALE,SINGLE_FAMILY,815  18th St,,San Diego,CA,92154,4,3,,1705,1950,29,1099000,2023-10-22,551000,2021-07-20,,645,32.581603,-117.094599,1,0,
https://www.realtor.com/realestateandhomes-detail/2956859654,MRCA,NDP2308235,FOR_SALE,SINGLE_FAMILY,12675  Caminito Radiante,,San Diego,CA,92130,5,3,1,3432,1999,29,2495000,2023-10-22,1920000,2023-07-19,5227,727,32.94774,-117.203339,2,474,3
https://www.realtor.com/realestateandhomes-detail/9970369362,TB1B,264149,FOR_SALE,CONDO_TOWNHOME_ROWHOME_COOP,2711  Everly Dr,,San Diego,CA,92108,3,2,1,1458,,29,1137000,2023-10-22,,,,780,32.78083712393881,-117.14205807483732,3,,2
https://www.realtor.com/realestateandhomes-detail/1825692353,SDCA,230021613,FOR_SALE,SINGLE_FAMILY,3747  Hemlock St,,San Diego,CA,92113,5,3,,2150,1955,18,725000,2023-11-02,870000,2022-09-16,6300,337,32.699606,-117.113571,1,,2
https://www.realtor.com/realestateandhomes-detail/1897466559,MRCA,PTP2305426,FOR_SALE,SINGLE_FAMILY,4161  San Miguel Ave,,San Diego,CA,92113,3,2,,1035,1980,18,689900,2023-11-02,460000,2022-06-07,5000,667,32.701782,-117.105066,1,0,
https://www.realtor.com/realestateandhomes-detail/2278903076,SDCA,230021606,FOR_SALE,SINGLE_FAMILY,5186  Abuela Dr,,San Diego,CA,92124,4,2,,1558,1973,18,929000,2023-11-02,31500,1972-08-30,2900,596,32.825478,-117.097596,1,175,2
https://www.realtor.com/realestateandhomes-detail/2641770514,SDCA,230021603,FOR_SALE,CONDOS,510  1st Ave,Unit 1605,San Diego,CA,92101,2,2,,1222,2002,18,1095000,2023-11-02,729000,2020-10-14,60113,896,32.710921,-117.16422,1,1571,2
https://www.realtor.com/realestateandhomes-detail/2137331136,SDCA,230021598,FOR_SALE,SINGLE_FAMILY,928  Sapphire St,Apt B,San Diego,CA,92109,3,3,1,1493,1992,18,1435000,2023-11-02,1050000,2021-05-07,5261,961,32.808559,-117.256597,3,275,2
https://www.realtor.com/realestateandhomes-detail/2747350494,SDCA,230021592,FOR_SALE,SINGLE_FAMILY,3708  Hawk St,,San Diego,CA,92103,2,2,,1650,1958,18,1450000,2023-11-02,,,7203,879,32.745358,-117.172474,2,0,1
https://www.realtor.com/realestateandhomes-detail/1022783496,MRCA,NDP2308539,FOR_SALE,SINGLE_FAMILY,5302  Caminito Providencia,,Rancho Santa Fe,CA,92067,2,2,1,2576,1985,18,1995000,2023-11-02,,,,774,32.983003,-117.201922,2,750,2
https://www.realtor.com/realestateandhomes-detail/1878089338,SDCA,230021583,FOR_SALE,CONDOS,7855  Via Belfiore,Unit 4,San Diego,CA,92129,2,1,1,1295,2003,18,739000,2023-11-02,273000,2011-12-22,,571,32.963128,-117.154085,2,342,1
https://www.realtor.com/realestateandhomes-detail/1940121542,SDCA,230021576,FOR_SALE,SINGLE_FAMILY,5024  54th St,,San Diego,CA,92115,6,4,,1974,1958,18,1475000,2023-11-02,1042500,2021-10-04,,747,32.769524,-117.080316,1,0,
https://www.realtor.com/realestateandhomes-detail/1437034467,MRCA,PTP2305419,FOR_SALE,SINGLE_FAMILY,610  Braun Ave,,San Diego,CA,92114,3,2,,1684,1974,18,765000,2023-11-02,595000,2021-03-10,10302,454,32.71137,-117.022469,1,0,1
https://www.realtor.com/realestateandhomes-detail/9952287675,MRCA,PTP2305166,FOR_SALE,MOBILE,3340  Del Sol Blvd,Spc 38,San Diego,CA,92154,2,2,,1000,1979,18,159000,2023-11-02,,,2000,159,32.575199,-117.061539,1,0,
https://www.realtor.com/realestateandhomes-detail/2351492058,MRCA,NDP2308534,FOR_SALE,LAND,Bolton Hall Rd,,San Ysidro,CA,92173,,,,,,18,5500000,2023-11-02,230000,1993-04-26,119790,,32.550498,-117.048833,,0,
https://www.realtor.com/realestateandhomes-detail/1681288232,MRCA,NDP2308533,FOR_SALE,LAND,206 W Calle Primera,,San Ysidro,CA,92173,,,,,,18,2750000,2023-11-02,1050000,1991-05-06,65340,,32.551369,-117.049808,,0,
