institution,org_name,region,location,city,state_province,country,website,sourcewatch_page_url,lat,lon
atlas,ACTON INSTITUTE,United States,"Grand Rapids, MI",Grand Rapids,MI,,https://web.archive.org/web/20210108014853/http://www.acton.org/,https://web.archive.org/web/20210108014853/https://www.atlasnetwork.org/partners/global-directory/acton-institute,42.9634,-85.6681
atlas,ADVOCATES FOR SELF GOVERNMENT,United States,"Sacramento, CA",Sacramento,CA,,https://web.archive.org/web/20210108014853/http://theadvocates.org/,https://web.archive.org/web/20210108014853/https://www.atlasnetwork.org/partners/global-directory/advocates-for-self-government,38.5816,-121.4944
atlas,ALABAMA POLICY INSTITUTE,United States,"Birmingham, AL",Birmingham,AL,,https://web.archive.org/web/20210108014853/http://www.alabamapolicy.org/,https://web.archive.org/web/20210108014853/https://www.atlasnetwork.org/partners/global-directory/alabama-policy-institute,33.5186,-86.8104
atlas,ALASKA POLICY FORUM,United States,"Anchorage, AK",Anchorage,AK,,https://web.archive.org/web/20210108014853/http://www.alaskapolicyforum.org/,https://web.archive.org/web/20210108014853/https://www.atlasnetwork.org/partners/global-directory/alaska-policy-forum,61.2181,-149.8631
atlas,AMERICA'S FUTURE FOUNDATION,United States,"Washington, DC",Washington,DC,,https://web.archive.org/web/20210108014853/http://americasfuture.org/,https://web.archive.org/web/20210108014853/https://www.atlasnetwork.org/partners/global-directory/americas-future-foundation,38.89511,-77.03637
atlas,"AMERICAN CONSUMER INSTITUTE, CENTER FOR CITIZEN RESEARCH",United States,"Washington, DC",Washington,DC,,https://web.archive.org/web/20210108014853/http://www.theamericanconsumer.org/,https://web.archive.org/web/20210108014853/https://www.atlasnetwork.org/partners/global-directory/american-consumer-institute-center-for-citizen-research,38.89511,-77.03637
atlas,AMERICAN ENTERPRISE INSTITUTE,United States,"Washington, DC",Washington,DC,,https://web.archive.org/web/20210108014853/http://www.aei.org/,https://web.archive.org/web/20210108014853/https://www.atlasnetwork.org/partners/global-directory/american-enterprise-institute,38.89511,-77.03637
atlas,AMERICAN FEDERATION FOR CHILDREN,United States,"Washington, DC",Washington,DC,,https://web.archive.org/web/20210108014853/http://www.federationforchildren.com/,https://web.archive.org/web/20210108014853/https://www.atlasnetwork.org/partners/global-directory/american-federation-for-children,38.89511,-77.03637
atlas,AMERICAN INSTITUTE FOR ECONOMIC RESEARCH,United States,"Great Barrington, MA",Great Barrington,MA,,https://web.archive.org/web/20210108014853/http://www.aier.org/,https://web.archive.org/web/20210108014853/https://www.atlasnetwork.org/partners/global-directory/american-institute-for-economic-research,42.1954,-73.3644
atlas,AMERICAN JURIS LINK,United States,"Phoenix, AZ",Phoenix,AZ,,https://web.archive.org/web/20210108014853/http://www.americanjurislink.org/,https://web.archive.org/web/20210108014853/https://www.atlasnetwork.org/partners/global-directory/american-juris-link,33.4484,-112.074
atlas,AMERICAN LEGISLATIVE EXCHANGE COUNCIL,United States,"Arlington, VA",Arlington,VA,,https://web.archive.org/web/20210108014853/http://www.alec.org/,https://web.archive.org/web/20210108014853/https://www.atlasnetwork.org/partners/global-directory/american-legislative-exchange-council,38.8833,-77.1068
atlas,AMERICANS FOR TAX REFORM FOUNDATION,United States,"Washington, DC",Washington,DC,,https://web.archive.org/web/20210108014853/http://www.atr.org/,https://web.archive.org/web/20210108014853/https://www.atlasnetwork.org/partners/global-directory/americans-for-tax-reform,38.89511,-77.03637
atlas,ARCHBRIDGE INSTITUTE,United States,"Washington, DC",Washington,DC,,https://web.archive.org/web/20210108014853/http://www.archbridgeinstitute.org/,https://web.archive.org/web/20210108014853/https://www.atlasnetwork.org/partners/global-directory/archbridge-institute,38.89511,-77.03637
atlas,ARIZONA CENTER FOR PHILOSOPHY OF FREEDOM,United States,"Tuscon, AZ",Tuscon,AZ,,https://web.archive.org/web/20210108014853/http://www.freedomcenter.arizona.edu/,https://web.archive.org/web/20210108014853/https://www.atlasnetwork.org/partners/global-directory/arizona-center-for-philosophy-of-freedom,32.2226,-110.9747
atlas,ARKANSAS CENTER FOR RESEARCH IN ECONOMICS,United States,"Conway, AR",Conway,AR,,https://web.archive.org/web/20210108014853/http://uca.edu/acre/,https://web.archive.org/web/20210108014853/https://www.atlasnetwork.org/partners/global-directory/arkansas-center-for-research-in-economics,35.0993,-92.4419
atlas,ARKANSAS POLICY FOUNDATION,United States,"Little Rock, AR",Little Rock,AR,,https://web.archive.org/web/20210108014853/http://www.arkansaspolicyfoundation.org/,https://web.archive.org/web/20210108014853/https://www.atlasnetwork.org/partners/global-directory/arkansas-policy-foundation,34.7465,-92.2896
atlas,AYN RAND INSTITUTE,United States,"Santa Ana, CA",Santa Ana,CA,,https://web.archive.org/web/20210108014853/http://ari.aynrand.org/,https://web.archive.org/web/20210108014853/https://www.atlasnetwork.org/partners/global-directory/ayn-rand-institute,33.7455,-117.8677
atlas,BADGER INSTITUTE,United States,"Milwaukee, WI",Milwaukee,WI,,https://web.archive.org/web/20210108014853/http://badgerinstitute.org/BI.htm,https://web.archive.org/web/20210108014853/https://www.atlasnetwork.org/partners/global-directory/badger-institute,43.0389,-87.9065
atlas,BALLOTPEDIA,United States,"Middleton, WI",Middleton,WI,,https://web.archive.org/web/20210108014853/http://www.ballotpdia.org/,https://web.archive.org/web/20210108014853/https://www.atlasnetwork.org/partners/global-directory/Ballotpedia,43.0975,-89.5043
atlas,BEACON CENTER OF TENNESSEE,United States,"Nashville, TN",Nashville,TN,,https://web.archive.org/web/20210108014853/http://www.beacontn.org/,https://web.archive.org/web/20210108014853/https://www.atlasnetwork.org/partners/global-directory/beacon-center-of-tennessee,36.1627,-86.7816
atlas,BECKET,United States,"Washington, DC",Washington,DC,,https://web.archive.org/web/20210108014853/http://www.becketfund.org/,https://web.archive.org/web/20210108014853/https://www.atlasnetwork.org/partners/global-directory/becket,38.89511,-77.03637
atlas,BETTER CITIES PROJECT,United States,"Las Vegas, NV",Las Vegas,NV,,https://web.archive.org/web/20210108014853/http://www.better-cities.org/,https://web.archive.org/web/20210108014853/https://www.atlasnetwork.org/partners/global-directory/better-cities-project,36.1699,-115.1398
atlas,BILL OF RIGHTS INSTITUTE,United States,"Arlington, VA",Arlington,VA,,https://web.archive.org/web/20210108014853/http://www.billofrightsinstitute.org/,https://web.archive.org/web/20210108014853/https://www.atlasnetwork.org/partners/global-directory/bill-of-rights-institute,38.8833,-77.1068
atlas,BLACKSTONE & BURKE CENTER FOR LAW AND LIBERTY,United States,"Montgomery, AL",Montgomery,AL,,https://web.archive.org/web/20210108014853/http://www.blackstoneandburke.com/,https://web.archive.org/web/20210108014853/https://www.atlasnetwork.org/partners/global-directory/the-blackstone-and-burke-center-for-law-and-liberty,32.3668,-86.3
atlas,BLUEGRASS INSTITUTE FOR PUBLIC POLICY SOLUTIONS,United States,"Lexington, KY",Lexington,KY,,https://web.archive.org/web/20210108014853/http://www.bipps.org/,https://web.archive.org/web/20210108014853/https://www.atlasnetwork.org/partners/global-directory/bluegrass-institute-for-public-policy-solutions1,38.0406,-84.5037
atlas,BROAD + LIBERTY,United States,"Philadelphia, PA",Philadelphia,PA,,https://web.archive.org/web/20210108014853/http://www.broadandliberty.com/,https://web.archive.org/web/20210108014853/https://www.atlasnetwork.org/partners/global-directory/broad-liberty,39.9526,-75.1652
atlas,CAESAR RODNEY INSTITUTE,United States,"Dover, DE",Dover,DE,,https://web.archive.org/web/20210108014853/http://www.caesarrodney.org/,https://web.archive.org/web/20210108014853/https://www.atlasnetwork.org/partners/global-directory/caesar-rodney-institute,39.1582,-75.5244
atlas,CALIFORNIA POLICY CENTER,United States,"Tustin, CA",Tustin,CA,,https://web.archive.org/web/20210108014853/http://calpolicycenter.org/,https://web.archive.org/web/20210108014853/https://www.atlasnetwork.org/partners/global-directory/california-policy-center,33.7455,-117.8265
atlas,CALVIN COOLIDGE PRESIDENTIAL FOUNDATION,United States,"Plymouth, VT",Plymouth,VT,,https://web.archive.org/web/20210108014853/http://coolidgefoundation.org/,https://web.archive.org/web/20210108014853/https://www.atlasnetwork.org/partners/global-directory/calvin-coolidge-presidential-foundation,43.6102,-72.6824
atlas,CAPITAL RESEARCH CENTER,United States,"Washington, DC",Washington,DC,,https://web.archive.org/web/20210108014853/http://www.capitalresearch.org/,https://web.archive.org/web/20210108014853/https://www.atlasnetwork.org/partners/global-directory/capital-research-center,38.89511,-77.03637
atlas,CARDINAL INSTITUTE FOR WEST VIRGINIA POLICY,United States,"Charleston, WV",Charleston,WV,,https://web.archive.org/web/20210108014853/http://cardinalinstitute.com/,https://web.archive.org/web/20210108014853/https://www.atlasnetwork.org/partners/global-directory/cardinal-institute-for-west-virginia-policy,38.3498,-81.6326
atlas,CATO INSTITUTE,United States,"Washington, DC",Washington,DC,,https://web.archive.org/web/20210108014853/http://www.cato.org/,https://web.archive.org/web/20210108014853/https://www.atlasnetwork.org/partners/global-directory/cato-institute,38.89511,-77.03637
atlas,CENTER FOR ECONOMIC ACCOUNTABILITY,United States,"Grosse Pointe Woods, MI",Grosse Pointe Woods,MI,,https://web.archive.org/web/20210108014853/http://www.economicaccountability.org/,https://web.archive.org/web/20210108014853/https://www.atlasnetwork.org/partners/global-directory/center-for-economic-accountability,42.4934,-82.9114
atlas,CENTER FOR INDEPENDENT THOUGHT,United States,"Philadelphia, PA",Philadelphia,PA,,https://web.archive.org/web/20210108014853/http://www.centerforindependentthought.org/,https://web.archive.org/web/20210108014853/https://www.atlasnetwork.org/partners/global-directory/center-for-independent-thought,39.9526,-75.1652
atlas,CENTER FOR PUBLIC CHOICE & MARKET PROCESS,United States,"Charleston, SC",Charleston,SC,,https://web.archive.org/web/20210108014853/http://sb.cofc.edu/centers/publicchoice/,https://web.archive.org/web/20210108014853/https://www.atlasnetwork.org/partners/global-directory/initiative-for-public-choice-market-process,32.7765,-79.9311
atlas,CENTER FOR THE STUDY OF ECONOMIC LIBERTY,United States,"Tempe, AZ",Tempe,AZ,,https://web.archive.org/web/20210108014853/http://csel.asu.edu/,https://web.archive.org/web/20210108014853/https://www.atlasnetwork.org/partners/global-directory/center-for-the-study-of-economic-liberty-at-arizona-state-university,33.4255,-111.94
atlas,CENTER FOR THE STUDY OF LIBERTY,United States,"Carmel, IN",Carmel,IN,,https://web.archive.org/web/20210108014853/http://www.studyliberty.org/,https://web.archive.org/web/20210108014853/https://www.atlasnetwork.org/partners/global-directory/center-for-the-study-of-liberty,39.9784,-86.118
atlas,"CENTRO PARA RENOVACIÓN ECONÓMICA, CRECIMIENTO Y EXCELENCIA",United States,"San Juan, PR",San Juan,PR,,https://web.archive.org/web/20210108014853/http://www.centrocrece.org/,https://web.archive.org/web/20210108014853/https://www.atlasnetwork.org/partners/global-directory/centro-para-renovacion-economica-crecimiento-y-excelencia1,18.4655,-66.1057
atlas,"CERTELL, INC.",United States,"Indianapolis, IN",Indianapolis,IN,,https://web.archive.org/web/20210108014853/http://www.certell.org/,https://web.archive.org/web/20210108014853/https://www.atlasnetwork.org/partners/global-directory/certell-inc,39.7684,-86.1581
atlas,CHARTER CITIES INSTITUTE,United States,"Washington, DC",Washington,DC,,https://web.archive.org/web/20210108014853/http://www.chartercitiesinstitute.org/,https://web.archive.org/web/20210108014853/https://www.atlasnetwork.org/partners/global-directory/charter-cities-institute,38.89511,-77.03637
atlas,CIVITAS INSTITUTE,United States,"Raleigh, NC",Raleigh,NC,,https://web.archive.org/web/20210108014853/http://www.nccivitas.org/,https://web.archive.org/web/20210108014853/https://www.atlasnetwork.org/partners/global-directory/civitas-institute,35.7796,-78.6382
atlas,CLEMSON INSTITUTE FOR THE STUDY OF CAPITALISM,United States,"Clemson, SC",Clemson,SC,,https://web.archive.org/web/20210108014853/http://www.clemson.edu/capitalism/,https://web.archive.org/web/20210108014853/https://www.atlasnetwork.org/partners/global-directory/clemson-institute-for-the-study-of-capitalism,34.6739,-82.8375
atlas,COMMON SENSE INSTITUTE,United States,"Greenwood Village, CO",Greenwood Village,CO,,https://web.archive.org/web/20210108014853/http://www.commonsenseinstituteco.org/,https://web.archive.org/web/20210108014853/https://www.atlasnetwork.org/partners/global-directory/common-sense-policy-roundtable-forum,39.6056,-104.9509
atlas,COMMONWEALTH FOUNDATION,United States,"Harrisburg, PA",Harrisburg,PA,,https://web.archive.org/web/20210108014853/http://www.commonwealthfoundation.org/,https://web.archive.org/web/20210108014853/https://www.atlasnetwork.org/partners/global-directory/commonwealth-foundation,40.2732,-76.8844
atlas,COMPACT FOR AMERICA EDUCATIONAL FOUNDATION,United States,"Houston, TX",Houston,TX,,https://web.archive.org/web/20210108014853/http://compactforamerica.org/,https://web.archive.org/web/20210108014853/https://www.atlasnetwork.org/partners/global-directory/compact-for-america-educational-foundation,29.7604,-95.3698
atlas,COMPETITIVE ENTERPRISE INSTITUTE,United States,"Washington, DC",Washington,DC,,https://web.archive.org/web/20210108014853/http://www.cei.org/,https://web.archive.org/web/20210108014853/https://www.atlasnetwork.org/partners/global-directory/competitive-enterprise-institute,38.89511,-77.03637
atlas,CONSCIOUS CAPITALISM,United States,"Warren, MI",Warren,MI,,https://web.archive.org/web/20210108014853/http://www.consciouscapitalism.org/,https://web.archive.org/web/20210108014853/https://www.atlasnetwork.org/partners/global-directory/conscious-capitalism,42.5149,-83.0149
atlas,CONSUMER CHOICE CENTER,United States,"Arlington, VA",Arlington,VA,,https://web.archive.org/web/20210108014853/http://consumerchoicecenter.org/,https://web.archive.org/web/20210108014853/https://www.atlasnetwork.org/partners/global-directory/consumer-choice-center,38.8833,-77.1068
atlas,ECONOMIC THINKING,United States,"Seattle, WA",Seattle,WA,,https://web.archive.org/web/20210108014853/http://www.economicthinking.org/,https://web.archive.org/web/20210108014853/https://www.atlasnetwork.org/partners/global-directory/economic-thinking,47.6062,-122.3321
atlas,ED SNIDER CENTER FOR ENTERPRISE & MARKETS,United States,"College Park, MD",College Park,MD,,https://web.archive.org/web/20210108014853/http://www.rhsmith.umd.edu/centers-excellence/snider-center-enterprise-markets,https://web.archive.org/web/20210108014853/https://www.atlasnetwork.org/partners/global-directory/ed-snider-center-for-enterprise-markets,38.9872,-76.9378
atlas,EMPIRE CENTER FOR PUBLIC POLICY,United States,"Albany, NY",Albany,NY,,https://web.archive.org/web/20210108014853/http://www.empirecenter.org/,https://web.archive.org/web/20210108014853/https://www.atlasnetwork.org/partners/global-directory/empire-center-for-public-policy,42.6526,-73.7562
atlas,ETHAN ALLEN INSTITUTE,United States,"Montpelier, VT",Montpelier,VT,,https://web.archive.org/web/20210108014853/http://www.ethanallen.org/,https://web.archive.org/web/20210108014853/https://www.atlasnetwork.org/partners/global-directory/ethan-allen-institute,44.2601,-72.5754
atlas,EXCELINED,United States,"Tallahassee, FL",Tallahassee,FL,,https://web.archive.org/web/20210108014853/http://www.excelined.org/,https://web.archive.org/web/20210108014853/https://www.atlasnetwork.org/partners/global-directory/foundation-for-excellence-in-education,30.4383,-84.2807
atlas,FEDERALIST SOCIETY FOR LAW AND PUBLIC POLICY STUDIES,United States,"Washington, DC",Washington,DC,,https://web.archive.org/web/20210108014853/http://fedsoc.org/,https://web.archive.org/web/20210108014853/https://www.atlasnetwork.org/partners/global-directory/federalist-society-for-law-and-public-policy-studies,38.89511,-77.03637
atlas,FIRST LIBERTY INSTITUTE,United States,"Plano, TX",Plano,TX,,https://web.archive.org/web/20210108014853/http://firstliberty.org/,https://web.archive.org/web/20210108014853/https://www.atlasnetwork.org/partners/global-directory/first-liberty-institute,33.0198,-96.6989
atlas,FOUNDATION FOR GOVERNMENT ACCOUNTABILITY,United States,"Naples, FL",Naples,FL,,https://web.archive.org/web/20210108014853/http://www.thefga.org/,https://web.archive.org/web/20210108014853/https://www.atlasnetwork.org/partners/global-directory/foundation-for-government-accountability,26.142038,-81.794857
atlas,FOUNDATION FOR INDIVIDUAL RIGHTS IN EDUCATION (FIRE),United States,"Philadelphia, PA",Philadelphia,PA,,https://web.archive.org/web/20210108014853/http://www.thefire.org/,https://web.archive.org/web/20210108014853/https://www.atlasnetwork.org/partners/global-directory/foundation-for-individual-rights-in-education-fire,39.9526,-75.1652
atlas,FRANKLIN NEWS FOUNDATION,United States,"Chicago, IL",Chicago,IL,,https://web.archive.org/web/20210108014853/http://www.franklinnews.org/,https://web.archive.org/web/20210108014853/https://www.atlasnetwork.org/partners/global-directory/franklin-news,41.8781,-87.6298
atlas,FREE THE PEOPLE FOUNDATION,United States,"Washington, DC",Washington,DC,,https://web.archive.org/web/20210108014853/http://freethepeople.org/,https://web.archive.org/web/20210108014853/https://www.atlasnetwork.org/partners/global-directory/free-the-people,38.89511,-77.03637
atlas,FREE TO CHOOSE NETWORK,United States,"Erie, PA",Erie,PA,,https://web.archive.org/web/20210108014853/http://www.freetochoosemedia.org/,https://web.archive.org/web/20210108014853/https://www.atlasnetwork.org/partners/global-directory/free-to-choose-network,42.1292,-80.0851
atlas,FREEDOM & VIRTUE INSTITUTE,United States,"Fort Myers, FL",Fort Myers,FL,,https://web.archive.org/web/20210108014853/http://www.fvinstitute.org/,https://web.archive.org/web/20210108014853/https://www.atlasnetwork.org/partners/global-directory/the-freedom-virtue-institute,26.6406,-81.8723
atlas,GENETIC LITERACY PROJECT,United States,"Cincinnati, OH",Cincinnati,OH,,https://web.archive.org/web/20210108014853/http://www.geneticliteracyproject.org/,https://web.archive.org/web/20210108014853/https://www.atlasnetwork.org/partners/global-directory/genetic-literacy-project,39.1031,-84.512
atlas,GEORGIA CENTER FOR OPPORTUNITY,United States,"Peachtree Corners, GA",Peachtree Corners,GA,,https://web.archive.org/web/20210108014853/http://georgiaopportunity.org/,https://web.archive.org/web/20210108014853/https://www.atlasnetwork.org/partners/global-directory/georgia-center-for-opportunity,33.9704,-84.225
atlas,GEORGIA PUBLIC POLICY FOUNDATION,United States,"Atlanta, GA",Atlanta,GA,,https://web.archive.org/web/20210108014853/http://www.gppf.org/,https://web.archive.org/web/20210108014853/https://www.atlasnetwork.org/partners/global-directory/georgia-public-policy-foundation,33.749,-84.388
atlas,GOLDWATER INSTITUTE,United States,"Phoenix, AZ",Phoenix,AZ,,https://web.archive.org/web/20210108014853/http://www.goldwaterinstitute.org/,https://web.archive.org/web/20210108014853/https://www.atlasnetwork.org/partners/global-directory/goldwater-institute,33.4484,-112.074
atlas,GRASSROOT INSTITUTE OF HAWAII,United States,"Honolulu, HI",Honolulu,HI,,https://web.archive.org/web/20210108014853/http://grassrootinstitute.org/,https://web.archive.org/web/20210108014853/https://www.atlasnetwork.org/partners/global-directory/grassroot-institute-of-hawaii,21.3069,-157.8583
atlas,HERITAGE FOUNDATION,United States,"Washington, DC",Washington,DC,,https://web.archive.org/web/20210108014853/http://www.heritage.org/,https://web.archive.org/web/20210108014853/https://www.atlasnetwork.org/partners/global-directory/heritage-foundation,38.89511,-77.03637
atlas,HOOVER INSTITUTION,United States,"Stanford, CA",Stanford,CA,,https://web.archive.org/web/20210108014853/http://www.hoover.org/,https://web.archive.org/web/20210108014853/https://www.atlasnetwork.org/partners/global-directory/hoover-institution,37.4275,-122.1697
atlas,HUMAN RIGHTS FOUNDATION,United States,"New York, NY",New York,NY,,https://web.archive.org/web/20210108014853/http://www.hrf.org/,https://web.archive.org/web/20210108014853/https://www.atlasnetwork.org/partners/global-directory/human-rights-foundation,40.7128,-74.006
atlas,IDAHO FREEDOM FOUNDATION,United States,"Boise, ID",Boise,ID,,https://web.archive.org/web/20210108014853/http://www.idahofreedom.org/,https://web.archive.org/web/20210108014853/https://www.atlasnetwork.org/partners/global-directory/idaho-freedom-foundation,43.615,-116.2023
atlas,IDEAS BEYOND BORDERS,United States,"New York, NY",New York,NY,,https://web.archive.org/web/20210108014853/http://www.ideasbeyondborders.org/,https://web.archive.org/web/20210108014853/https://www.atlasnetwork.org/partners/global-directory/ideas-beyond-borders,40.7128,-74.006
atlas,ILLINOIS POLICY INSTITUTE,United States,"Chicago, IL",Chicago,IL,,https://web.archive.org/web/20210108014853/http://www.illinoispolicy.org/,https://web.archive.org/web/20210108014853/https://www.atlasnetwork.org/partners/global-directory/illinois-policy-institute,41.8781,-87.6298
atlas,INDEPENDENCE INSTITUTE,United States,"Denver, CO",Denver,CO,,https://web.archive.org/web/20210108014853/http://www.i2i.org/,https://web.archive.org/web/20210108014853/https://www.atlasnetwork.org/partners/global-directory/independence-institute,39.7392,-104.9903
atlas,INDEPENDENT INSTITUTE,United States,"Oakland, CA",Oakland,CA,,https://web.archive.org/web/20210108014853/http://www.independent.org/,https://web.archive.org/web/20210108014853/https://www.atlasnetwork.org/partners/global-directory/independent-institute,37.8044,-122.2711
atlas,INDEPENDENT WOMEN'S FORUM,United States,"Winchester, VA",Winchester,VA,,https://web.archive.org/web/20210108014853/http://www.iwf.org/,https://web.archive.org/web/20210108014853/https://www.atlasnetwork.org/partners/global-directory/independent-womens-forum,39.1852,-78.1659
atlas,INSTITUTE FOR FREE SPEECH,United States,"Washington, DC",Washington,DC,,https://web.archive.org/web/20210108014853/http://www.ifs.org/,https://web.archive.org/web/20210108014853/https://www.atlasnetwork.org/partners/global-directory/institute-for-free-speech,38.89511,-77.03637
atlas,INSTITUTE FOR HUMANE STUDIES,United States,"Arlington, VA",Arlington,VA,,https://web.archive.org/web/20210108014853/http://www.theihs.org/,https://web.archive.org/web/20210108014853/https://www.atlasnetwork.org/partners/global-directory/institute-for-humane-studies,38.8833,-77.1068
atlas,INSTITUTE FOR JUSTICE,United States,"Arlington, VA",Arlington,VA,,https://web.archive.org/web/20210108014853/http://www.ij.org/,https://web.archive.org/web/20210108014853/https://www.atlasnetwork.org/partners/global-directory/institute-for-justice,38.8833,-77.1068
atlas,INSTITUTE FOR POLICY INNOVATION,United States,"Irving, TX",Irving,TX,,https://web.archive.org/web/20210108014853/http://www.ipi.org/,https://web.archive.org/web/20210108014853/https://www.atlasnetwork.org/partners/global-directory/institute-for-policy-innovation,32.814,-96.948
atlas,INSTITUTE FOR PRINCIPLE STUDIES,United States,"Modesto, CA",Modesto,CA,,https://web.archive.org/web/20210108014853/http://principlestudies.org/,https://web.archive.org/web/20210108014853/https://www.atlasnetwork.org/partners/global-directory/institute-for-principle-studies,37.6391,-120.9969
atlas,INTERCOLLEGIATE STUDIES INSTITUTE,United States,"Wilmington, DE",Wilmington,DE,,https://web.archive.org/web/20210108014853/http://home.isi.org/,https://web.archive.org/web/20210108014853/https://www.atlasnetwork.org/partners/global-directory/intercollegiate-studies-institute-inc,39.7392,-75.5398
atlas,INTERNATIONAL CENTER FOR LAW & ECONOMICS,United States,"Portland, OR",Portland,OR,,https://web.archive.org/web/20210108014853/http://www.laweconcenter.org/,https://web.archive.org/web/20210108014853/https://www.atlasnetwork.org/partners/global-directory/international-center-for-law-economics,45.523451,-122.676207
atlas,JAMES G. MARTIN CENTER FOR ACADEMIC RENEWAL,United States,"Raleigh, NC",Raleigh,NC,,https://web.archive.org/web/20210108014853/http://www.jamesgmartin.center/,https://web.archive.org/web/20210108014853/https://www.atlasnetwork.org/partners/global-directory/james-g.-martin-center-for-academic-renewal,35.7796,-78.6382
atlas,JAMES MADISON INSTITUTE,United States,"Tallahassee, FL",Tallahassee,FL,,https://web.archive.org/web/20210108014853/http://www.jamesmadison.org/,https://web.archive.org/web/20210108014853/https://www.atlasnetwork.org/partners/global-directory/james-madison-institute,30.4383,-84.2807
atlas,JOHN LOCKE FOUNDATION,United States,"Raleigh, NC",Raleigh,NC,,https://web.archive.org/web/20210108014853/http://www.johnlocke.org/,https://web.archive.org/web/20210108014853/https://www.atlasnetwork.org/partners/global-directory/john-locke-foundation,35.7796,-78.6382
atlas,JUNIOR ACHIEVEMENT - ROCKY MOUNTAIN,United States,"Arvada, CO",Arvada,CO,,https://web.archive.org/web/20210108014853/http://www.jacolorado.org/,https://web.archive.org/web/20210108014853/https://www.atlasnetwork.org/partners/global-directory/junior-achievement-rocky-mountain,39.8028,-105.0875
atlas,JUST ADD FIREWATER,United States,"Los Angles, CA",Los Angles,CA,,https://web.archive.org/web/20210108014853/http://www.justaddfirewater.com/,https://web.archive.org/web/20210108014853/https://www.atlasnetwork.org/partners/global-directory/just-add-firewater,34.0522,-118.2437
atlas,KANSAS POLICY INSTITUTE,United States,"Witchita, KS",Witchita,KS,,https://web.archive.org/web/20210108014853/http://www.kansaspolicy.org/,https://web.archive.org/web/20210108014853/https://www.atlasnetwork.org/partners/global-directory/kansas-policy-institute,37.6872,-97.3301
atlas,LADIES OF LIBERTY ALLIANCE,United States,"Washington, DC",Washington,DC,,https://web.archive.org/web/20210108014853/http://ladiesofliberty.org/,https://web.archive.org/web/20210108014853/https://www.atlasnetwork.org/partners/global-directory/ladies-of-liberty-alliance,38.89511,-77.03637
atlas,LAW AND ECONOMICS CENTER AT GEORGE MASON UNIVERSITY,United States,"Arlington, VA",Arlington,VA,,https://web.archive.org/web/20210108014853/http://masonlec.org/,https://web.archive.org/web/20210108014853/https://www.atlasnetwork.org/partners/global-directory/law-and-economics-center-at-george-mason-university,38.8833,-77.1068
atlas,LET GROW,United States,"New York, NY",New York,NY,,https://web.archive.org/web/20210108014853/http://www.letgrow.org/,https://web.archive.org/web/20210108014853/https://www.atlasnetwork.org/partners/global-directory/let-grow,40.7128,-74.006
atlas,LIBERTAS INSTITUTE,United States,"Lehi, UT",Lehi,UT,,https://web.archive.org/web/20210108014853/http://libertasutah.org/,https://web.archive.org/web/20210108014853/https://www.atlasnetwork.org/partners/global-directory/libertas-institute,40.3925,-111.8508
atlas,LIBERTY FUND,United States,"Indianapolis, IN",Indianapolis,IN,,https://web.archive.org/web/20210108014853/http://www.libertyfund.org/,https://web.archive.org/web/20210108014853/https://www.atlasnetwork.org/partners/global-directory/liberty-fund,39.7684,-86.1581
atlas,LIBERTY INTERNATIONAL,United States,"San Francisco, CA",San Francisco,CA,,https://web.archive.org/web/20210108014853/http://liberty-intl.org/,https://web.archive.org/web/20210108014853/https://www.atlasnetwork.org/partners/global-directory/international-society-for-individual-liberty,37.7749,-122.4194
atlas,LINCOLN NETWORK,United States,"San Francisco, CA",San Francisco,CA,,https://web.archive.org/web/20210108014853/http://joinlincoln.org/,https://web.archive.org/web/20210108014853/https://www.atlasnetwork.org/partners/global-directory/lincoln-network,37.7749,-122.4194
atlas,MACKINAC CENTER FOR PUBLIC POLICY,United States,"Midland, MI",Midland,MI,,https://web.archive.org/web/20210108014853/http://www.mackinac.org/,https://web.archive.org/web/20210108014853/https://www.atlasnetwork.org/partners/global-directory/mackinac-center-for-public-policy,43.6156,-84.2478
atlas,MADISON LIBERTY INSTITUTE,United States,"Rexburg, ID",Rexburg,ID,,https://web.archive.org/web/20210108014853/http://www.madisonliberty.org/,https://web.archive.org/web/20210108014853/https://www.atlasnetwork.org/partners/global-directory/madison-liberty-institute,43.8265,-111.7857
atlas,MAINE POLICY INSTITUTE,United States,"Portland, ME",Portland,ME,,https://web.archive.org/web/20210108014853/http://www.mainepolicy.org/,https://web.archive.org/web/20210108014853/https://www.atlasnetwork.org/partners/global-directory/maine-policy-institute,43.6615,-70.2553
atlas,MANHATTAN INSTITUTE FOR POLICY RESEARCH,United States,"New York, NY",New York,NY,,https://web.archive.org/web/20210108014853/http://www.manhattan-institute.org/,https://web.archive.org/web/20210108014853/https://www.atlasnetwork.org/partners/global-directory/manhattan-institute-for-policy-research,40.7128,-74.006
atlas,MANUEL H. JOHNSON CENTER FOR POLITICAL ECONOMY,United States,"Troy, AL",Troy,AL,,https://web.archive.org/web/20210108014853/http://www.troy.edu/academics/colleges-schools/business/johnson-center/about/index.html,https://web.archive.org/web/20210108014853/https://www.atlasnetwork.org/partners/global-directory/manuel-h.-johnson-center-for-political-economy,31.8404,-85.9641
atlas,MARYLAND PUBLIC POLICY INSTITUTE,United States,"Germantown, MD",Germantown,MD,,https://web.archive.org/web/20210108014853/http://www.mdpolicy.org/,https://web.archive.org/web/20210108014853/https://www.atlasnetwork.org/partners/global-directory/maryland-public-policy-institute,39.1732,-77.2719
atlas,MERCATUS CENTER AT GEORGE MASON UNIVERSITY,United States,"Arlington, VA",Arlington,VA,,https://web.archive.org/web/20210108014853/http://www.mercatus.org/,https://web.archive.org/web/20210108014853/https://www.atlasnetwork.org/partners/global-directory/mercatus-center-at-george-mason-university,38.8833,-77.1068
atlas,MISSISSIPPI CENTER FOR PUBLIC POLICY,United States,"Jackson, MS",Jackson,MS,,https://web.archive.org/web/20210108014853/http://www.mspolicy.org/,https://web.archive.org/web/20210108014853/https://www.atlasnetwork.org/partners/global-directory/mississippi-center-for-public-policy,32.2988,-90.1848
atlas,MONT PELERIN SOCIETY,United States,"Alexandria, VA",Alexandria,VA,,https://web.archive.org/web/20210108014853/http://www.montpelerin.org/,https://web.archive.org/web/20210108014853/https://www.atlasnetwork.org/partners/global-directory/mont-pelerin-society,38.8048,-77.0469
atlas,MOUNTAIN STATES LEGAL FOUNDATION,United States,"Lakewood, CO",Lakewood,CO,,https://web.archive.org/web/20210108014853/http://www.mountainstateslegal.org/,https://web.archive.org/web/20210108014853/https://www.atlasnetwork.org/partners/global-directory/mountain-states-legal-foundation,39.6139,-105.0814
atlas,MOVING PICTURE INSTITUTE,United States,"New York, NY",New York,NY,,https://web.archive.org/web/20210108014853/http://www.thempi.org/,https://web.archive.org/web/20210108014853/https://www.atlasnetwork.org/partners/global-directory/moving-picture-institute,40.7128,-74.006
atlas,MUSIC FOR LIBERTY,United States,"Van Nuys, CA",Van Nuys,CA,,https://web.archive.org/web/20210108014853/http://www.musicforliberty.com/,https://web.archive.org/web/20210108014853/https://www.atlasnetwork.org/partners/global-directory/music-for-liberty,34.1894,-118.4515
atlas,NATIONAL REVIEW INSTITUTE,United States,"New York City, NY",New York City,NY,,https://web.archive.org/web/20210108014853/http://nrinstitute.org/,https://web.archive.org/web/20210108014853/https://www.atlasnetwork.org/partners/global-directory/national-review-institute,40.7128,-74.006
atlas,NATIONAL TAXPAYERS UNION,United States,"Washington, DC",Washington,DC,,https://web.archive.org/web/20210108014853/http://www.ntu.org/,https://web.archive.org/web/20210108014853/https://www.atlasnetwork.org/partners/global-directory/national-taxpayers-union,38.89511,-77.03637
atlas,NEVADA POLICY RESEARCH INSTITUTE,United States,"Las Vegas, NV",Las Vegas,NV,,https://web.archive.org/web/20210108014853/http://www.npri.org/,https://web.archive.org/web/20210108014853/https://www.atlasnetwork.org/partners/global-directory/nevada-policy-research-institute,36.1699,-115.1398
atlas,NEW CIVIL LIBERTIES ALLIANCE,United States,"Washington, DC",Washington,DC,,https://web.archive.org/web/20210108014853/http://www.nclalegal.org/,https://web.archive.org/web/20210108014853/https://www.atlasnetwork.org/partners/global-directory/new-civil-liberties-alliance,38.89511,-77.03637
atlas,PACIFIC LEGAL FOUNDATION,United States,"Arlington, VA",Arlington,VA,,https://web.archive.org/web/20210108014853/http://www.pacificlegal.org/,https://web.archive.org/web/20210108014853/https://www.atlasnetwork.org/partners/global-directory/pacific-legal-foundation,38.8833,-77.1068
atlas,PACIFIC RESEARCH INSTITUTE,United States,"San Francisco, CA",San Francisco,CA,,https://web.archive.org/web/20210108014853/http://www.pacificresearch.org/,https://web.archive.org/web/20210108014853/https://www.atlasnetwork.org/partners/global-directory/pacific-research-institute,37.7749,-122.4194
atlas,PALMETTO PROMISE INSTITUTE,United States,"Columbia, SC",Columbia,SC,,https://web.archive.org/web/20210108014853/http://palmettopromise.org/,https://web.archive.org/web/20210108014853/https://www.atlasnetwork.org/partners/global-directory/palmetto-promise-institute,34.0007,-81.0348
atlas,PHILADELPHIA SOCIETY,United States,"Jerome, MI",Jerome,MI,,https://web.archive.org/web/20210108014853/http://www.phillysoc.org/,https://web.archive.org/web/20210108014853/https://www.atlasnetwork.org/partners/global-directory/philadelphia-society,42.1015,-84.5881
atlas,PHILANTHROPY ROUNDTABLE,United States,"Washington, DC",Washington,DC,,https://web.archive.org/web/20210108014853/http://www.philanthropyroundtable.org/,https://web.archive.org/web/20210108014853/https://www.atlasnetwork.org/partners/global-directory/philanthropy-roundtable,38.89511,-77.03637
atlas,PIONEER INSTITUTE FOR PUBLIC POLICY RESEARCH,United States,"Boston, MA",Boston,MA,,https://web.archive.org/web/20210108014853/http://www.pioneerinstitute.org/,https://web.archive.org/web/20210108014853/https://www.atlasnetwork.org/partners/global-directory/pioneer-institute-for-public-policy-research,42.3601,-71.0589
atlas,PLAN PAÍS,United States,"Arlington, VA",Arlington,VA,,https://web.archive.org/web/20210108014853/http://www.planpais.com/,https://web.archive.org/web/20210108014853/https://www.atlasnetwork.org/partners/global-directory/plan-pais,38.8833,-77.1068
atlas,PLATTE INSTITUTE,United States,"Omaha, NE",Omaha,NE,,https://web.archive.org/web/20210108014853/http://www.platteinstitute.org/,https://web.archive.org/web/20210108014853/https://www.atlasnetwork.org/partners/global-directory/platte-institute,41.2565,-95.9345
atlas,PROPERTY AND ENVIRONMENT RESEARCH CENTER (PERC),United States,"Bozeman, MT",Bozeman,MT,,https://web.archive.org/web/20210108014853/http://www.perc.org/,https://web.archive.org/web/20210108014853/https://www.atlasnetwork.org/partners/global-directory/property-and-environment-research-center,45.676,-111.0429
atlas,R STREET INSTITUTE,United States,"Washington, DC",Washington,DC,,https://web.archive.org/web/20210108014853/http://www.rstreet.org/,https://web.archive.org/web/20210108014853/https://www.atlasnetwork.org/partners/global-directory/r-street-institute,38.89511,-77.03637
atlas,REASON FOUNDATION,United States,"Los Angeles, CA",Los Angeles,CA,,https://web.archive.org/web/20210108014853/http://www.reason.org/,https://web.archive.org/web/20210108014853/https://www.atlasnetwork.org/partners/global-directory/reason-foundation,34.0522,-118.2437
atlas,SHOW-ME INSTITUTE,United States,"Saint Louis, MO",Saint Louis,MO,,https://web.archive.org/web/20210108014853/http://www.showmeinstitute.org/,https://web.archive.org/web/20210108014853/https://www.atlasnetwork.org/partners/global-directory/show-me-institute,38.627,-90.199
atlas,SMOCK MEDIA,United States,"Venice, CA",Venice,CA,,https://web.archive.org/web/20210108014853/http://smockmedia.com/,https://web.archive.org/web/20210108014853/https://www.atlasnetwork.org/partners/global-directory/smock-media,33.985,-118.4695
atlas,SPEECH FIRST,United States,"Washington, DC",Washington,DC,,https://web.archive.org/web/20210108014853/http://www.speechfirst.org/,https://web.archive.org/web/20210108014853/https://www.atlasnetwork.org/partners/global-directory/speech-first,38.89511,-77.03637
atlas,STARTUP SOCIETIES FOUNDATION,United States,"Salt Lake City, UT",Salt Lake City,UT,,https://web.archive.org/web/20210108014853/http://www.startupsocieties.com/,https://web.archive.org/web/20210108014853/https://www.atlasnetwork.org/partners/global-directory/startup-societies-foundation,40.7608,-111.891
atlas,STATE POLICY NETWORK,United States,"Arlington, VA",Arlington,VA,,https://web.archive.org/web/20210108014853/http://www.spn.org/,https://web.archive.org/web/20210108014853/https://www.atlasnetwork.org/partners/global-directory/state-policy-network,38.8833,-77.1068
atlas,STUDENTS FOR LIBERTY,United States,"Arlington, VA",Arlington,VA,,https://web.archive.org/web/20210108014853/http://www.studentsforliberty.org/,https://web.archive.org/web/20210108014853/https://www.atlasnetwork.org/partners/global-directory/students-for-liberty,38.8833,-77.1068
atlas,SUTHERLAND INSTITUTE,United States,"Salt Lake City, UT",Salt Lake City,UT,,https://web.archive.org/web/20210108014853/http://www.sutherlandinstitute.org/,https://web.archive.org/web/20210108014853/https://www.atlasnetwork.org/partners/global-directory/sutherland-institute,40.7608,-111.891
atlas,TALIESIN NEXUS,United States,"Los Angeles, CA",Los Angeles,CA,,https://web.archive.org/web/20210108014853/http://www.talnexus.com/,https://web.archive.org/web/20210108014853/https://www.atlasnetwork.org/partners/global-directory/taliesin-nexus,34.0522,-118.2437
atlas,TAX FOUNDATION,United States,"Washington, DC",Washington,DC,,https://web.archive.org/web/20210108014853/http://www.taxfoundation.org/,https://web.archive.org/web/20210108014853/https://www.atlasnetwork.org/partners/global-directory/tax-foundation,38.89511,-77.03637
atlas,TAXPAYERS PROTECTION ALLIANCE,United States,"Washington, DC",Washington,DC,,https://web.archive.org/web/20210108014853/http://www.protectingtaxpayers.org/,https://web.archive.org/web/20210108014853/https://www.atlasnetwork.org/partners/global-directory/taxpayers-protection-alliance,38.89511,-77.03637
atlas,TEXAS PUBLIC POLICY FOUNDATION,United States,"Austin, TX",Austin,TX,,https://web.archive.org/web/20210108014853/http://www.texaspolicy.com/,https://web.archive.org/web/20210108014853/https://www.atlasnetwork.org/partners/global-directory/texas-public-policy-foundation,30.2672,-97.7431
atlas,THE ATLAS SOCIETY,United States,"Kingwood, TX",Kingwood,TX,,https://web.archive.org/web/20210108014853/http://www.atlassociety.org/,https://web.archive.org/web/20210108014853/https://www.atlasnetwork.org/partners/global-directory/atlas-society,30.0518,-95.2516
atlas,THE BEACON HILL INSTITUTE,United States,"Medway, MA",Medway,MA,,https://web.archive.org/web/20210108014853/http://www.beaconhill.org/,https://web.archive.org/web/20210108014853/https://www.atlasnetwork.org/partners/global-directory/beacon-hill-institute,42.1205,-71.4332
atlas,THE BUCKEYE INSTITUTE,United States,"Columbus, OH",Columbus,OH,,https://web.archive.org/web/20210108014853/http://www.buckeyeinstitute.org/,https://web.archive.org/web/20210108014853/https://www.atlasnetwork.org/partners/global-directory/the-buckeye-institute,39.9612,-82.9988
atlas,THE CONSERVATION COALITION,United States,"Appleton, WI",Appleton,WI,,https://web.archive.org/web/20210108014853/http://www.tcc.eco/,https://web.archive.org/web/20210108014853/https://www.atlasnetwork.org/partners/global-directory/american-conservation-coalition-campus,44.2619,-88.4016
atlas,THE FOUNDATION FOR ECONOMIC EDUCATION,United States,"Atlanta, GA",Atlanta,GA,,https://web.archive.org/web/20210108014853/http://www.fee.org/,https://web.archive.org/web/20210108014853/https://www.atlasnetwork.org/partners/global-directory/foundation-for-economic-education,33.749,-84.388
atlas,THE FOUNDATION FOR RESEARCH ON EQUAL OPPORTUNITY (FREOPP),United States,"Austin, TX",Austin,TX,,https://web.archive.org/web/20210108014853/http://freopp.org/,https://web.archive.org/web/20210108014853/https://www.atlasnetwork.org/partners/global-directory/foundation-for-research-on-equal-opportunity,30.2672,-97.7431
atlas,THE FRONTIER INSTITUTE,United States,"Helena, MT",Helena,MT,,https://web.archive.org/web/20210108014853/http://www.frontierinstitute.org/,https://web.archive.org/web/20210108014853/https://www.atlasnetwork.org/partners/global-directory/the-frontier-institute,46.595805,-112.468696
atlas,THE FUND FOR AMERICAN STUDIES (TFAS),United States,"Washington, DC",Washington,DC,,https://web.archive.org/web/20210108014853/http://www.tfas.org/,https://web.archive.org/web/20210108014853/https://www.atlasnetwork.org/partners/global-directory/the-fund-for-american-studies,38.89511,-77.03637
atlas,THE GARDEN STATE INITIATIVE,United States,"Morristown, NJ",Morristown,NJ,,https://web.archive.org/web/20210108014853/http://www.gardenstateinitiative.org/,https://web.archive.org/web/20210108014853/https://www.atlasnetwork.org/partners/global-directory/the-garden-state-initiative,40.8954,-74.4823
atlas,THE HEARTLAND INSTITUTE,United States,"Arlington Heights, IL",Arlington Heights,IL,,https://web.archive.org/web/20210108014853/http://www.heartland.org/,https://web.archive.org/web/20210108014853/https://www.atlasnetwork.org/partners/global-directory/heartland-institute,42.08836,-87.9802
atlas,THE LIBERTY JUSTICE CENTER,United States,"Chicago, IL",Chicago,IL,,https://web.archive.org/web/20210108014853/http://libertyjusticecenter.org/,https://web.archive.org/web/20210108014853/https://www.atlasnetwork.org/partners/global-directory/the-liberty-justice-center,41.8781,-87.6298
atlas,THE PELICAN INSTITUTE FOR PUBLIC POLICY,United States,"New Orleans, LA",New Orleans,LA,,https://web.archive.org/web/20210108014853/http://www.pelicaninstitute.org/,https://web.archive.org/web/20210108014853/https://www.atlasnetwork.org/partners/global-directory/pelican-institute-for-public-policy,29.9511,-90.0715
atlas,THE POLICY CIRCLE,United States,"Wilmette, IL",Wilmette,IL,,https://web.archive.org/web/20210108014853/http://www.thepolicycircle.org/,https://web.archive.org/web/20210108014853/https://www.atlasnetwork.org/partners/global-directory/the-policy-circle,42.0834,-87.7333
atlas,THE RIO GRANDE FOUNDATION,United States,"Albuquerque, NM",Albuquerque,NM,,https://web.archive.org/web/20210108014853/http://www.riograndefoundation.org/,https://web.archive.org/web/20210108014853/https://www.atlasnetwork.org/partners/global-directory/rio-grande-foundation,35.0844,-106.6504
atlas,THE SEASTEADING INSTITUTE,United States,"San Francisco, CA",San Francisco,CA,,https://web.archive.org/web/20210108014853/http://www.seasteading.org/,https://web.archive.org/web/20210108014853/https://www.atlasnetwork.org/partners/global-directory/seasteading-institute,37.7749,-122.4194
atlas,"THE WILLIAM F. BUCKLEY, JR. PROGRAM AT YALE UNIVERSITY",United States,"New Haven, CT",New Haven,CT,,https://web.archive.org/web/20210108014853/http://www.buckleyprogram.com/,https://web.archive.org/web/20210108014853/https://www.atlasnetwork.org/partners/global-directory/the-william-f.-buckley-jr.-program-at-yale-university,41.3083,-72.9279
atlas,THINK FREELY MEDIA,United States,"Chicago, IL",Chicago,IL,,https://web.archive.org/web/20210108014853/http://thinkfreelymedia.org/,https://web.archive.org/web/20210108014853/https://www.atlasnetwork.org/partners/global-directory/think-freely-media,41.8781,-87.6298
atlas,THOMAS JEFFERSON INSTITUTE FOR PUBLIC POLICY,United States,"Springfield, VA",Springfield,VA,,https://web.archive.org/web/20210108014853/http://www.thomasjeffersoninst.org/,https://web.archive.org/web/20210108014853/https://www.atlasnetwork.org/partners/global-directory/thomas-jefferson-institute-for-public-policy,38.7916,-77.1875
atlas,TRUTH IN ACCOUNTING,United States,"Chicago, IL",Chicago,IL,,https://web.archive.org/web/20210108014853/http://www.truthinaccounting.org/,https://web.archive.org/web/20210108014853/https://www.atlasnetwork.org/partners/global-directory/truth-in-accounting,41.8781,-87.6298
atlas,URBAN REFORM INSTITUTE,United States,"Houston, TX",Houston,TX,,https://web.archive.org/web/20210108014853/http://www.urbanreforminstitute.org/,https://web.archive.org/web/20210108014853/https://www.atlasnetwork.org/partners/global-directory/urban-reform-institute,29.7604,-95.3698
atlas,VIRGINIA INSTITUTE FOR PUBLIC POLICY,United States,"Gainesville, VA",Gainesville,VA,,https://web.archive.org/web/20210108014853/http://www.virginiainstitute.org/,https://web.archive.org/web/20210108014853/https://www.atlasnetwork.org/partners/global-directory/virginia-institute-for-public-policy,38.7916,-77.6156
atlas,WASHINGTON POLICY CENTER,United States,"Seattle, WA",Seattle,WA,,https://web.archive.org/web/20210108014853/http://www.washingtonpolicy.org/,https://web.archive.org/web/20210108014853/https://www.atlasnetwork.org/partners/global-directory/washington-policy-center,47.6062,-122.3321
atlas,WISCONSIN INSTITUTE FOR LAW & LIBERTY,United States,"Milwaukee, WI",Milwaukee,WI,,https://web.archive.org/web/20210108014853/http://www.will-law.org/,https://web.archive.org/web/20210108014853/https://www.atlasnetwork.org/partners/global-directory/wisconsin-institute-for-law-liberty,43.0389,-87.9065
atlas,YANKEE INSTITUTE FOR PUBLIC POLICY STUDIES,United States,"Hartford, CT",Hartford,CT,,https://web.archive.org/web/20210108014853/http://www.yankeeinstitute.org/,https://web.archive.org/web/20210108014853/https://www.atlasnetwork.org/partners/global-directory/yankee-institute-for-public-policy-studies,41.7658,-72.6734
atlas,YOUNG AMERICANS FOR LIBERTY,United States,"Austin, TX",Austin,TX,,https://web.archive.org/web/20210108014853/http://www.yaliberty.org/,https://web.archive.org/web/20210108014853/https://www.atlasnetwork.org/partners/global-directory/young-americans-for-liberty,30.2672,-97.7431
atlas,YOUNG VOICES,United States,"Washington, DC",Washington,DC,,https://web.archive.org/web/20210108014853/http://www.young-voices.com/,https://web.archive.org/web/20210108014853/https://www.atlasnetwork.org/partners/global-directory/young-voices,38.89511,-77.03637
atlas,ALBERTA INSTITUTE,Canada,"Calgary, Canada",Calgary,,,https://web.archive.org/web/20210123023720/http://www.albertainstitute.ca/,https://web.archive.org/web/20210123023720/https://www.atlasnetwork.org/partners/global-directory/alberta-institute,51.0447,-114.0719
atlas,CANADA STRONG AND FREE NETWORK,Canada,"Calgary, Canada",Calgary,,,https://web.archive.org/web/20210123023720/http://www.canadastrongandfree.network/,https://web.archive.org/web/20210123023720/https://www.atlasnetwork.org/partners/global-directory/canada-strong-and-free-network,51.0447,-114.0719
atlas,CANADIAN CONSTITUTION FOUNDATION,Canada,"Calgary, Canada",Calgary,,,https://web.archive.org/web/20210123023720/http://theccf.ca/,https://web.archive.org/web/20210123023720/https://www.atlasnetwork.org/partners/global-directory/canadian-constitution-foundation,51.0447,-114.0719
atlas,CANADIAN TAXPAYERS FEDERATION,Canada,"Regina, Canada",Regina,,,https://web.archive.org/web/20210123023720/http://www.taxpayer.com/,https://web.archive.org/web/20210123023720/https://www.atlasnetwork.org/partners/global-directory/canadian-taxpayers-federation,50.4454,-104.6189
atlas,CANADIANS FOR DEMOCRACY & PROSPERITY,Canada,"Calgary, Canada",Calgary,,,https://web.archive.org/web/20210123023720/http://www.democracyandprosperity.ca/,https://web.archive.org/web/20210123023720/https://www.atlasnetwork.org/partners/global-directory/canadians-for-democracy-prosperity,51.0447,-114.0719
atlas,FRONTIER CENTRE FOR PUBLIC POLICY,Canada,"Winnipeg, Canada",Winnipeg,,,https://web.archive.org/web/20210123023720/http://www.fcpp.org/,https://web.archive.org/web/20210123023720/https://www.atlasnetwork.org/partners/global-directory/frontier-centre-for-public-policy,49.8951,-97.1384
atlas,INSTITUTE FOR LIBERAL STUDIES,Canada,"Ottawa, Canada",Ottawa,,,https://web.archive.org/web/20210123023720/http://liberalstudies.ca/,https://web.archive.org/web/20210123023720/https://www.atlasnetwork.org/partners/global-directory/institute-for-liberal-studies,45.4215,-75.6972
atlas,MACDONALD-LAURIER INSTITUTE,Canada,"Ottawa, Canada",Ottawa,Ontario,,https://web.archive.org/web/20210123023720/http://macdonaldlaurier.ca/,https://web.archive.org/web/20210123023720/https://www.atlasnetwork.org/partners/global-directory/macdonald-laurier-institute-for-public-policy,45.4215,-75.6972
atlas,MONTREAL ECONOMIC INSTITUTE (INSTITUT ECONOMIQUE DE MONTREAL),Canada,"Montreal, Canada",Montreal,,,https://web.archive.org/web/20210123023720/http://www.iedm.org/,https://web.archive.org/web/20210123023720/https://www.atlasnetwork.org/partners/global-directory/montreal-economic-institute-institut-economique-de-montreal,45.5017,-73.5673
atlas,SECONDSTREET.ORG,Canada,"Regina, Canada",Regina,,,https://web.archive.org/web/20210123023720/http://www.secondstreet.org/,https://web.archive.org/web/20210123023720/https://www.atlasnetwork.org/partners/global-directory/secondstreet.org,50.4454,-104.6189
atlas,THE FRASER INSTITUTE,Canada,"Vancouver, Canada",Vancouver,,,https://web.archive.org/web/20210123023720/http://www.fraserinstitute.org/,https://web.archive.org/web/20210123023720/https://www.atlasnetwork.org/partners/global-directory/fraser-institute,49.2827,-123.1207
atlas,ASOCIACION ARGENTINA DE CONTRIBUYENTES,Latin America and Caribbean,"Buenos Aires, Argentina",Buenos Aires,,,https://web.archive.org/web/20210118235233/http://www.nlc-argentina.org/,https://web.archive.org/web/20210118235233/https://www.atlasnetwork.org/partners/global-directory/asociacion-argentina-de-contribuyentes,-34.603684,-58.381559
atlas,ASOCIACIÓN DE CONSUMIDORES LIBRES,Latin America and Caribbean,"San José, Costa Rica",San José,,,https://web.archive.org/web/20210118235233/http://www.consumidoreslibres.org/,https://web.archive.org/web/20210118235233/https://www.atlasnetwork.org/partners/global-directory/asociacion-nacional-de-consumidores-libres,9.9281,-84.0907
atlas,ASOCIACIÓN DE CONTRIBUYENTES DEL PERÚ,Latin America and Caribbean,"Lima, Peru",Lima,,,https://web.archive.org/web/20210118235233/http://tucontribuyes.com/,https://web.archive.org/web/20210118235233/https://www.atlasnetwork.org/partners/global-directory/Asociacion-de-Contribuyentes-del-Peru,-12.0464,-77.0428
atlas,ASOCIACIÓN NACIONAL DE FOMENTO ECONÓMICO,Latin America and Caribbean,"San José, Costa Rica",San José,,,https://web.archive.org/web/20210118235233/http://www.anfe.cr/,https://web.archive.org/web/20210118235233/https://www.atlasnetwork.org/partners/global-directory/asociacion-nacional-de-fomento-economico,9.9281,-84.0907
atlas,AYN RAND CENTER - LATIN AMERICA,Latin America and Caribbean,"Buenos Aires, Argentina",Buenos Aires,,,https://web.archive.org/web/20210118235233/http://www.aynrandlatam.org/,https://web.archive.org/web/20210118235233/https://www.atlasnetwork.org/partners/global-directory/ayn-rand-center-latin-america,-34.603684,-58.381559
atlas,CAMINOS DE LA LIBERTAD,Latin America and Caribbean,"Mexico City, Mexico",Mexico City,,,https://web.archive.org/web/20210118235233/http://www.caminosdelalibertad.com/,https://web.archive.org/web/20210118235233/https://www.atlasnetwork.org/partners/global-directory/caminos-de-la-libertad,19.4326,-99.1332
atlas,CEDICE LIBERTAD,Latin America and Caribbean,"Caracas, Venezuela",Caracas,,,https://web.archive.org/web/20210118235233/http://cedice.org.ve/,https://web.archive.org/web/20210118235233/https://www.atlasnetwork.org/partners/global-directory/centro-de-divulgacion-del-conocimiento-economico-para-la-libertad,10.4915,-66.8983
atlas,CENTER FOR THE STUDY OF CONTEMPORARY OPEN SOCIETIES,Latin America and Caribbean,"Montevideo, Uruguay",Montevideo,,,https://web.archive.org/web/20210118235233/http://cescos.org/,https://web.archive.org/web/20210118235233/https://www.atlasnetwork.org/partners/global-directory/center-for-the-study-of-contemporary-open-societies,-34.9011,-56.1645
atlas,"CENTRO DE ECONOMÍA, SOCIEDAD Y EMPRESA",Latin America and Caribbean,"Montevideo, Uruguay",Montevideo,,,https://web.archive.org/web/20210118235233/http://www.ieem.edu.uy/investigacion,https://web.archive.org/web/20210118235233/https://www.atlasnetwork.org/partners/global-directory/centro-de-economia-sociedad-y-empresa-ese,-34.9011,-56.1645
atlas,CENTRO DE ESTUDIOS DE LA REALIDAD ECONÓMICA Y SOCIAL,Latin America and Caribbean,"Montevideo, Uruguay",Montevideo,,,https://web.archive.org/web/20210118235233/http://www.ceres-uy.org/,https://web.archive.org/web/20210118235233/https://www.atlasnetwork.org/partners/global-directory/centro-de-estudios-de-la-realidad-economica-y-social,-34.9011,-56.1645
atlas,CENTRO DE ESTUDIOS DE LA REALIDAD ECONÓMICA Y SOCIAL (CERES),Latin America and Caribbean,"Cochabamba, Bolivia",Cochabamba,,,https://web.archive.org/web/20210118235233/http://www.ceresbolivia.org/,https://web.archive.org/web/20210118235233/https://www.atlasnetwork.org/partners/global-directory/centro-de-estudios-de-la-realidad-economica-y-social-ceres,-17.3945,-66.1576
atlas,CENTRO DE ESTUDIOS ECONÓMICO-SOCIALES (CEES),Latin America and Caribbean,"Guatemala City, Guatemala",Guatemala City,,,https://web.archive.org/web/20210118235233/http://www.cees.org.gt/,https://web.archive.org/web/20210118235233/https://www.atlasnetwork.org/partners/global-directory/centro-de-estudios-economico-sociales,14.634915,-90.506882
atlas,CENTRO DE ESTUDIOS PARA EL DESARROLLO,Latin America and Caribbean,"Montevideo, Uruguay",Montevideo,,,https://web.archive.org/web/20210118235233/http://www.ced.uy/,https://web.archive.org/web/20210118235233/https://www.atlasnetwork.org/partners/global-directory/centro-de-estudios-para-el-desarrollo,-34.9011,-56.1645
atlas,CENTRO DE ESTUDIOS PÚBLICOS (CEP),Latin America and Caribbean,"Santiago, Chile",Santiago,,,https://web.archive.org/web/20210118235233/http://www.cepchile.cl/,https://web.archive.org/web/20210118235233/https://www.atlasnetwork.org/partners/global-directory/centro-de-estudios-publicos,-33.4489,-70.6693
atlas,CENTRO DE INVESTIGACIÓN DE LA EMPRESA,Latin America and Caribbean,"Santiago, Chile",Santiago,,,https://web.archive.org/web/20210118235233/http://negocios.udd.cl/centro-de-investigacion-de-empresa-y-sociedad-cies,https://web.archive.org/web/20210118235233/https://www.atlasnetwork.org/partners/global-directory/centro-de-investigacion-de-la-empresa,-33.4489,-70.6693
atlas,CENTRO DE INVESTIGACIONES ECONÓMICAS NACIONALES (CIEN),Latin America and Caribbean,"Guatemala City, Guatemala",Guatemala City,,,https://web.archive.org/web/20210118235233/http://cien.org.gt/,https://web.archive.org/web/20210118235233/https://www.atlasnetwork.org/partners/global-directory/centro-de-investigaciones-economicas-nacionales,14.634915,-90.506882
atlas,CENTRO MACKENZIE DE LIBERDADE ECONOMICA,Latin America and Caribbean,"São Paulo, Brazil",São Paulo,,,https://web.archive.org/web/20210118235233/http://https//www.mackenzie.br/liberdade-economica/,https://web.archive.org/web/20210118235233/https://www.atlasnetwork.org/partners/global-directory/mackenzie-center-for-economic-freedom,-23.5505,-46.6333
atlas,CENTRO PARA LA APERTURA Y EL DESARROLLO DE AMÉRICA LATINA,Latin America and Caribbean,"Buenos Aires, Argentina",Buenos Aires,,,https://web.archive.org/web/20210118235233/http://www.cadal.org/,https://web.archive.org/web/20210118235233/https://www.atlasnetwork.org/partners/global-directory/centro-para-la-apertura-y-el-desarrollo-de-america-latina,-34.603684,-58.381559
atlas,CENTRO REGIONAL DE ESTRATEGIAS ECONÓMICAS SOSTENIBLES,Latin America and Caribbean,"Santo Domingo, Dominican Republic",Santo Domingo,,,https://web.archive.org/web/20210118235233/http://www.crees.org.do/,https://web.archive.org/web/20210118235233/https://www.atlasnetwork.org/partners/global-directory/centro-regional-de-estrategias-economicas-sostenibles,18.4861,-69.9312
atlas,CÍRCULO ACTON CHILE,Latin America and Caribbean,"Santiago, Chile",Santiago,,,https://web.archive.org/web/20210118235233/http://facebook.com/CirculoActonChile,https://web.archive.org/web/20210118235233/https://www.atlasnetwork.org/partners/global-directory/circulo-acton-chile,-33.4489,-70.6693
atlas,CIUDADANO AUSTRAL,Latin America and Caribbean,"Chiloé, Chile",Chiloé,,,https://web.archive.org/web/20210118235233/http://ciudadanoaustral.org/,https://web.archive.org/web/20210118235233/https://www.atlasnetwork.org/partners/global-directory/ciudadano-austral,-42.2226,-73.9052
atlas,CLUB DE LA LIBERTAD,Latin America and Caribbean,"Corrientes, Argentina",Corrientes,,,https://web.archive.org/web/20210118235233/http://www.clubdelalibertad.com/,https://web.archive.org/web/20210118235233/https://www.atlasnetwork.org/partners/global-directory/fundacion-club-de-la-libertad,-27.4801,-58.8344
atlas,CONTRIBUYENTES POR RESPETO,Latin America and Caribbean,"Lima, Peru",Lima,,,https://web.archive.org/web/20210118235233/http://contribuyentes.pe/,https://web.archive.org/web/20210118235233/https://www.atlasnetwork.org/partners/global-directory/contribuyentes-por-respeto,-12.0464,-77.0428
atlas,DEMOCRACIA Y DESARROLLO,Latin America and Caribbean,"Lima, Peru",Lima,,,https://web.archive.org/web/20210118235233/http://www.ddint.org/,https://web.archive.org/web/20210118235233/https://www.atlasnetwork.org/partners/global-directory/democracia-y-desarrollo,-12.0464,-77.0428
atlas,ECONINTECH,Latin America and Caribbean,"Barquisimeto, Venezuela",Barquisimeto,,,https://web.archive.org/web/20210118235233/http://econintech.org/,https://web.archive.org/web/20210118235233/https://www.atlasnetwork.org/partners/global-directory/econintech,10.0735,-69.3488
atlas,ECUADOR LIBRE,Latin America and Caribbean,"Guayaquil, Ecuador",Guayaquil,,,https://web.archive.org/web/20210118235233/http://www.ecuadorlibre.org/,https://web.archive.org/web/20210118235233/https://www.atlasnetwork.org/partners/global-directory/fundacion-ecuador-libre1,-2.1961,-79.9222
atlas,ESTUDIANTES POR LA LIBERTAD,Latin America and Caribbean,"Quito, Ecuador",Quito,,,https://web.archive.org/web/20210118235233/http://www.eslibertad.org/,https://web.archive.org/web/20210118235233/https://www.atlasnetwork.org/partners/global-directory/estudiantes-por-la-libertad,-0.22985,-78.52495
atlas,FORMA FORMACIÓN Y ACCIÓN,Latin America and Caribbean,"Caracas, Venezuela",Caracas,,,https://web.archive.org/web/20210118235233/http://facebook.com/forma.formacion.y.accion,https://web.archive.org/web/20210118235233/https://www.atlasnetwork.org/partners/global-directory/forma-formacion-y-accion,10.4915,-66.8983
atlas,FUNDACIÓN APOLO,Latin America and Caribbean,"Buenos Aires, Argentina",Buenos Aires,,,https://web.archive.org/web/20210118235233/http://www.fundacionapolo.org/,https://web.archive.org/web/20210118235233/https://www.atlasnetwork.org/partners/global-directory/fundacion-apolo,-34.603684,-58.381559
atlas,FUNDACIÓN ATLAS PARA UNA SOCIEDAD LIBRE,Latin America and Caribbean,"Caba, Argentina",Caba,,,https://web.archive.org/web/20210118235233/http://www.fundacionatlas.org/,https://web.archive.org/web/20210118235233/https://www.atlasnetwork.org/partners/global-directory/fundacion-atlas-1853,-34.5805,-58.4333
atlas,FUNDACIÓN CIUDADANÍA Y DESARROLLO,Latin America and Caribbean,"Quito, Ecuador",Quito,,,https://web.archive.org/web/20210118235233/http://www.ciudadaniaydesarrollo.org/,https://web.archive.org/web/20210118235233/https://www.atlasnetwork.org/partners/global-directory/fundacion-ciudadania-y-desarrollo,-0.22985,-78.52495
atlas,FUNDACIÓN EDUCACIÓN PARA LA RESPONSABILIDAD INTELECTUAL,Latin America and Caribbean,"Buenos Aires, Argentina",Buenos Aires,,,https://web.archive.org/web/20210118235233/http://www.frilatam.org/,https://web.archive.org/web/20210118235233/https://www.atlasnetwork.org/partners/global-directory/fundacion-para-la-responsabilidad-intelectual,-34.603684,-58.381559
atlas,FUNDACIÓN ELÉUTERA,Latin America and Caribbean,"San Pedro Sula, Honduras",San Pedro Sula,,,https://web.archive.org/web/20210118235233/http://www.eleutera.org/,https://web.archive.org/web/20210118235233/https://www.atlasnetwork.org/partners/global-directory/fundacion-eleutera,15.5,-88.02
atlas,FUNDACIÓN FEDERALISMO Y LIBERTAD,Latin America and Caribbean,"San Miguel de Tucumán, Argentina",San Miguel de Tucumán,,,https://web.archive.org/web/20210118235233/http://www.federalismoylibertad.org/,https://web.archive.org/web/20210118235233/https://www.atlasnetwork.org/partners/global-directory/fundacion-federalismo-y-libertad,-26.8083,-65.2176
atlas,FUNDACIÓN GLOBAL,Latin America and Caribbean,"Buenos Aires, Argentina",Buenos Aires,,,https://web.archive.org/web/20210118235233/http://www.fglobal.org/,https://web.archive.org/web/20210118235233/https://www.atlasnetwork.org/partners/global-directory/fundacion-global,-34.603684,-58.381559
atlas,FUNDACIÓN INTERNACIONAL BASES,Latin America and Caribbean,"Rosario, Argentina",Rosario,,,https://web.archive.org/web/20210118235233/http://www.fundacionbases.org/,https://web.archive.org/web/20210118235233/https://www.atlasnetwork.org/partners/global-directory/fundacion-bases,-32.9468,-60.6393
atlas,FUNDACIÓN LEADERSHIP INSTITUTE CHILE,Latin America and Caribbean,"Santiago, Chile",Santiago,,,https://web.archive.org/web/20210118235233/http://flchile.cl/,https://web.archive.org/web/20210118235233/https://www.atlasnetwork.org/partners/global-directory/fundacion-leadership-institute-chile,-33.4489,-70.6693
atlas,FUNDACIÓN LIBERTAD,Latin America and Caribbean,"Panama City, Panama",Panama City,,,https://web.archive.org/web/20210118235233/http://facebook.com/fundacionlibertadpty,https://web.archive.org/web/20210118235233/https://www.atlasnetwork.org/partners/global-directory/fundacion-libertad-panama,8.983333,-79.516667
atlas,FUNDACIÓN LIBERTAD,Latin America and Caribbean,"Rosario, Argentina",Rosario,,,https://web.archive.org/web/20210118235233/http://www.libertad.org.ar/,https://web.archive.org/web/20210118235233/https://www.atlasnetwork.org/partners/global-directory/fundacion-libertad,-32.9468,-60.6393
atlas,FUNDACIÓN LIBERTAD Y DESARROLLO,Latin America and Caribbean,"Santiago, Chile",Santiago,,,https://web.archive.org/web/20210118235233/http://www.lyd.org/,https://web.archive.org/web/20210118235233/https://www.atlasnetwork.org/partners/global-directory/libertad-y-desarrollo,-33.4489,-70.6693
atlas,FUNDACIÓN NUEVA DEMOCRACIA,Latin America and Caribbean,"Santa Cruz de la Sierra, Bolivia",Santa Cruz de la Sierra,,,https://web.archive.org/web/20210118235233/http://www.nuevademocracia.org.bo/,https://web.archive.org/web/20210118235233/https://www.atlasnetwork.org/partners/global-directory/fundacion-nueva-democracia,-17.785,-63.1812
atlas,FUNDACIÓN NUEVA MENTE,Latin America and Caribbean,"Lo Barnechea, Chile",Lo Barnechea,,,https://web.archive.org/web/20210118235233/http://www.fnm.cl/,https://web.archive.org/web/20210118235233/https://www.atlasnetwork.org/partners/global-directory/fundacion-nueva-mente,-33.3667,-70.5167
atlas,FUNDACIÓN P!ENSA,Latin America and Caribbean,"Valparaíso, Chile",Valparaíso,,,https://web.archive.org/web/20210118235233/http://www.fundacionpiensa.cl/,https://web.archive.org/web/20210118235233/https://www.atlasnetwork.org/partners/global-directory/fundacion-pensa,-33.0472,-71.6127
atlas,FUNDACIÓN PAÍS JUSTO,Latin America and Caribbean,"Santiago, Chile",Santiago,,,https://web.archive.org/web/20210118235233/http://www.paisjusto.cl/,https://web.archive.org/web/20210118235233/https://www.atlasnetwork.org/partners/global-directory/fundacion-pais-justo,-33.4489,-70.6693
atlas,FUNDACIÓN PARA EL DESARROLLO DE GUATEMALA,Latin America and Caribbean,"Guatemala City , Guatemala",Guatemala City,,,https://web.archive.org/web/20210118235233/http://www.fundesa.org.gt/en/,https://web.archive.org/web/20210118235233/https://www.atlasnetwork.org/partners/global-directory/fundacion-para-el-desarrollo-de-guatemala,14.634915,-90.506882
atlas,FUNDACIÓN PARA EL PROGRESO,Latin America and Caribbean,"Santiago, Chile",Santiago,,,https://web.archive.org/web/20210118235233/http://www.fppchile.cl/,https://web.archive.org/web/20210118235233/https://www.atlasnetwork.org/partners/global-directory/fundacion-para-el-progreso,-33.4489,-70.6693
atlas,FUNDACIÓN PARA LA LIBERTAD ECONÓMICA,Latin America and Caribbean,"San Pedro Sula, Honduras",San Pedro Sula,,,https://web.archive.org/web/20210118235233/http://www.libertadeconomica.org/,https://web.archive.org/web/20210118235233/https://www.atlasnetwork.org/partners/global-directory/fundacion-para-la-libertad-economica,15.5,-88.02
atlas,FUNDACIÓN PARAGUAYA,Latin America and Caribbean,"Asunción, Paraguay",Asunción,,,https://web.archive.org/web/20210118235233/http://www.fundacionparaguaya.org.py/,https://web.archive.org/web/20210118235233/https://www.atlasnetwork.org/partners/global-directory/fundacion-paraguaya,-25.2637,-57.5759
atlas,FUNDACIÓN PRENSA LIBRE,Latin America and Caribbean,"Santiago, Chile",Santiago,,,https://web.archive.org/web/20210118235233/http://www.ellibero.cl/,https://web.archive.org/web/20210118235233/https://www.atlasnetwork.org/partners/global-directory/fundacion-prensa-libre,-33.4489,-70.6693
atlas,FUNDACIÓN RED CULTURAL,Latin America and Caribbean,"Santiago, Chile",Santiago,,,https://web.archive.org/web/20210118235233/http://www.redcultural.cl/,https://web.archive.org/web/20210118235233/https://www.atlasnetwork.org/partners/global-directory/fundacion-red-cultural,-33.4489,-70.6693
atlas,FUNDACIÓN SALVADOREÑA PARA EL DESARROLLO ECONÓMICO Y SOCIAL,Latin America and Caribbean,"Antiguo Cuscatlan, El Salvador",Antiguo Cuscatlan,,,https://web.archive.org/web/20210118235233/http://www.fusades.org/,https://web.archive.org/web/20210118235233/https://www.atlasnetwork.org/partners/global-directory/fundacion-salvadorena-para-el-desarrollo-economico-y-social,13.6889,-89.2276
atlas,GUATEMALA INMORTAL,Latin America and Caribbean,Guatemala,,,,https://web.archive.org/web/20210118235233/http://www.guateinmortal.org/,https://web.archive.org/web/20210118235233/https://www.atlasnetwork.org/partners/global-directory/guatemala-inmortal,15.7835,-90.2308
atlas,HIPERDERECHO,Latin America and Caribbean,"Lima, Peru",Lima,,,https://web.archive.org/web/20210118235233/http://www.hiperderecho.org/,https://web.archive.org/web/20210118235233/https://www.atlasnetwork.org/partners/global-directory/hiperderecho,-12.0464,-77.0428
atlas,HORIZONTAL CHILE,Latin America and Caribbean,"Providencia, Chile",Providencia,,,https://web.archive.org/web/20210118235233/http://www.horizontalchile.cl/,https://web.archive.org/web/20210118235233/https://www.atlasnetwork.org/partners/global-directory/horizontal-chile,-33.4314,-70.6154
atlas,IDEAS LABS,Latin America and Caribbean,"San José, Costa Rica",San José,,,https://web.archive.org/web/20210118235233/http://ideaslabs.org/,https://web.archive.org/web/20210118235233/https://www.atlasnetwork.org/partners/global-directory/instituto-de-desarrollo-empresarial-y-accion-social,9.9281,-84.0907
atlas,INSTITUTO ACTON,Latin America and Caribbean,"San Isidro, Argentina",San Isidro,,,https://web.archive.org/web/20210118235233/http://institutoacton.org/,https://web.archive.org/web/20210118235233/https://www.atlasnetwork.org/partners/global-directory/instituto-acton-argentina,-34.8608,-58.3847
atlas,INSTITUTO ATLANTOS,Latin America and Caribbean,"Porto Alegre, Brazil",Porto Alegre,,,https://web.archive.org/web/20210118235233/http://atlantos.com.br/,https://web.archive.org/web/20210118235233/https://www.atlasnetwork.org/partners/global-directory/instituto-atlantos,-30.0346,-51.2177
atlas,INSTITUTO DE CIENCIA POLÍTICA HERNÁN ECHAVARRÍA OLÓZAGA,Latin America and Caribbean,"Bogotá, Colombia",Bogotá,,,https://web.archive.org/web/20210118235233/http://www.icpcolombia.org/,https://web.archive.org/web/20210118235233/https://www.atlasnetwork.org/partners/global-directory/instituto-de-ciencia-politica,4.611,-74.083
atlas,"INSTITUTO DE CIENCIA, ECONOMÍA, EDUCACIÓN Y SALUD",Latin America and Caribbean,"Santa Cruz de la Sierra, Bolivia",Santa Cruz de la Sierra,,,https://web.archive.org/web/20210118235233/http://www.icees.org.bo/,https://web.archive.org/web/20210118235233/https://www.atlasnetwork.org/partners/global-directory/instituto-de-ciencia-economia-educacion-y-salud,-17.785,-63.1812
atlas,INSTITUTO DE ESTUDIOS DE LA SOCIEDAD,Latin America and Caribbean,Chile,,,,https://web.archive.org/web/20210118235233/http://www.ieschile.cl/,https://web.archive.org/web/20210118235233/https://www.atlasnetwork.org/partners/global-directory/instituto-de-estudios-de-la-sociedad,-35.6751,-71.543
atlas,INSTITUTO DE ESTUDIOS PARA UNA SOCIEDAD ABIERTA,Latin America and Caribbean,"Panama City, Panama",Panama City,,,https://web.archive.org/web/20210118235233/http://www.isapanama.org/,https://web.archive.org/web/20210118235233/https://www.atlasnetwork.org/partners/global-directory/instituto-de-estudios-para-una-sociedad-abierta,8.983333,-79.516667
atlas,INSTITUTO DE ESTUDOS EMPRESARIAIS (IEE),Latin America and Caribbean,"Porto Alegre, Brazil",Porto Alegre,,,https://web.archive.org/web/20210118235233/http://www.iee.com.br/,https://web.archive.org/web/20210118235233/https://www.atlasnetwork.org/partners/global-directory/instituto-de-estudos-empresariais,-30.0346,-51.2177
atlas,INSTITUTO DE FORMAÇÃO DE LÍDERES DE BELO HORIZONTE,Latin America and Caribbean,"Belo Horizonte, Brazil",Belo Horizonte,,,https://web.archive.org/web/20210118235233/http://www.iflbh.com.br/,https://web.archive.org/web/20210118235233/https://www.atlasnetwork.org/partners/global-directory/instituto-de-formacaeo-de-lideres,-19.9191,-43.9384
atlas,INSTITUTO DE FORMAÇÃO DE LÍDERES DE SANTA CATARINA,Latin America and Caribbean,"Santa Catarina, Brazil",Santa Catarina,,,https://web.archive.org/web/20210118235233/http://iflsc.org.br/,https://web.archive.org/web/20210118235233/https://www.atlasnetwork.org/partners/global-directory/instituto-de-formacaeo-de-lideres-de-santa-catarina,-27.2108,-50.4808
atlas,INSTITUTO DE FORMAÇÃO DE LÍDERES DE SÃO PAULO,Latin America and Caribbean,"São Paulo, Brazil",São Paulo,,,https://web.archive.org/web/20210118235233/http://www.iflsp.org/,https://web.archive.org/web/20210118235233/https://www.atlasnetwork.org/partners/global-directory/instituto-de-formacaeo-de-lideres-sp,-23.5505,-46.6333
atlas,INSTITUTO DE PENSAMIENTO ESTRATÉGICO ÁGORA A.C. (AGORA INSTITUTE FOR STRATEGIC THINKING ),Latin America and Caribbean,"Queretaro, Mexico",Queretaro,,,https://web.archive.org/web/20210118235233/http://www.ipea.institute/index.html,https://web.archive.org/web/20210118235233/https://www.atlasnetwork.org/partners/global-directory/instituto-de-pensamiento-estrategico-agora-a.c.-agora-institute-for-strateg,20.5888,-100.3899
atlas,INSTITUTO DEL FUTURO,Latin America and Caribbean,"Lima, Peru",Lima,,,https://web.archive.org/web/20210118235233/http://www.idf.pe/es/,https://web.archive.org/web/20210118235233/https://www.atlasnetwork.org/partners/global-directory/instituto-del-futuro,-12.0464,-77.0428
atlas,INSTITUTO ECUATORIANO DE ECONOMÍA POLÍTICA,Latin America and Caribbean,"Guayaquil, Ecuador",Guayaquil,,,https://web.archive.org/web/20210118235233/http://www.ieep.org.ec/,https://web.archive.org/web/20210118235233/https://www.atlasnetwork.org/partners/global-directory/instituto-ecuatoriano-de-economia-politica,-2.1961,-79.9222
atlas,INSTITUTO FE Y LIBERTAD,Latin America and Caribbean,"Guatemala City, Guatemala",Guatemala City,,,https://web.archive.org/web/20210118235233/http://www.feylibertad.org/,https://web.archive.org/web/20210118235233/https://www.atlasnetwork.org/partners/global-directory/instituto-fe-y-libertad,14.634915,-90.506882
atlas,INSTITUTO IDEAS REPUBLICANAS,Latin America and Caribbean,"Santiago, Chile",Santiago,,,https://web.archive.org/web/20210118235233/http://ideasrepublicanas.cl/,https://web.archive.org/web/20210118235233/https://www.atlasnetwork.org/partners/global-directory/instituto-ideas-republicanas,-33.4489,-70.6693
atlas,INSTITUTO LIBERAL,Latin America and Caribbean,"Rio de Janeiro, Brazil",Rio de Janeiro,,,https://web.archive.org/web/20210118235233/http://www.institutoliberal.org.br/,https://web.archive.org/web/20210118235233/https://www.atlasnetwork.org/partners/global-directory/instituto-liberal,-22.9068,-43.1729
atlas,INSTITUTO LIBERAL DE SÃO PAULO (ILISP),Latin America and Caribbean,"São Paulo, Brazil",São Paulo,,,https://web.archive.org/web/20210118235233/http://www.ilisp.org/,https://web.archive.org/web/20210118235233/https://www.atlasnetwork.org/partners/global-directory/instituto-liberal-desaeo-paulo,-23.5505,-46.6333
atlas,INSTITUTO LIBERDADE,Latin America and Caribbean,"Porto Alegre, Brazil",Porto Alegre,,,https://web.archive.org/web/20210118235233/http://institutoliberdade.com.br/,https://web.archive.org/web/20210118235233/https://www.atlasnetwork.org/partners/global-directory/instituto-liberdade,-30.0346,-51.2177
atlas,INSTITUTO LIBERTAD,Latin America and Caribbean,"San Ramón, Costa Rica",San Ramón,,,https://web.archive.org/web/20210118235233/http://www.institutolibertad.org/,https://web.archive.org/web/20210118235233/https://www.atlasnetwork.org/partners/global-directory/asociacion-instituto-libertad-y-desarrollo-humano,9.9302,-84.1349
atlas,INSTITUTO LIBERTAD Y DEMOCRACIA,Latin America and Caribbean,"Lima, Peru",Lima,,,https://web.archive.org/web/20210118235233/http://facebook.com/ILDInstitute.for.Liberty.and.Democracy,https://web.archive.org/web/20210118235233/https://www.atlasnetwork.org/partners/global-directory/instituto-libertad-y-democracia,-12.0464,-77.0428
atlas,INSTITUTO LIBRE DESARROLLO,Latin America and Caribbean,"Caracas, Venezuela",Caracas,,,https://web.archive.org/web/20210118235233/http://www.institutolibredesarrollo.org/,https://web.archive.org/web/20210118235233/https://www.atlasnetwork.org/partners/global-directory/instituto-libre-desarrollo,10.4915,-66.8983
atlas,INSTITUTO LÍDERES DO AMANHÃ,Latin America and Caribbean,"Vitoria, Brazil",Vitoria,,,https://web.archive.org/web/20210118235233/http://www.lideresdoamanha.org.br/,https://web.archive.org/web/20210118235233/https://www.atlasnetwork.org/partners/global-directory/lideres-do-amanha-institute,-20.3155,-40.3128
atlas,INSTITUTO MEXICANO PARA LA COMPETITIVIDAD,Latin America and Caribbean,"Mexico City, Mexico",Mexico City,,,https://web.archive.org/web/20210118235233/http://imco.org.mx/home/,https://web.archive.org/web/20210118235233/https://www.atlasnetwork.org/partners/global-directory/instituto-mexicano-para-la-competitividad,19.4326,-99.1332
atlas,INSTITUTO MILLENIUM,Latin America and Caribbean,"Rio de Janeiro, Brazil",Rio de Janeiro,,,https://web.archive.org/web/20210118235233/http://www.institutomillenium.org.br/,https://web.archive.org/web/20210118235233/https://www.atlasnetwork.org/partners/global-directory/instituto-millenium,-22.9068,-43.1729
atlas,INSTITUTO MISES BRASIL,Latin America and Caribbean,"São Paulo, Brazil",São Paulo,,,https://web.archive.org/web/20210118235233/http://www.mises.org.br/,https://web.archive.org/web/20210118235233/https://www.atlasnetwork.org/partners/global-directory/instituto-ludwig-von-mises-brasil,-23.5505,-46.6333
atlas,INSTITUTO OMG,Latin America and Caribbean,"Santo Domingo, Dominican Republic",Santo Domingo,,,https://web.archive.org/web/20210118235233/http://www.iomg.edu.do/,https://web.archive.org/web/20210118235233/https://www.atlasnetwork.org/partners/global-directory/instituto-especializado-de-investigacion-y-formacion-en-ciencias-juridicas,18.4861,-69.9312
atlas,INSTITUTO PERUANO DE ECONOMÍA,Latin America and Caribbean,"Lima, Peru",Lima,,,https://web.archive.org/web/20210118235233/http://www.ipe.org.pe/,https://web.archive.org/web/20210118235233/https://www.atlasnetwork.org/partners/global-directory/instituto-peruano-de-economia,-12.0464,-77.0428
atlas,INSTITUTO POLÍTICO PARA LA LIBERTAD (IPL),Latin America and Caribbean,"Lima, Peru",Lima,,,https://web.archive.org/web/20210118235233/http://www.iplperu.org/,https://web.archive.org/web/20210118235233/https://www.atlasnetwork.org/partners/global-directory/instituto-politico-para-la-libertad,-12.0464,-77.0428
atlas,INSTITUTO RES PUBLICA,Latin America and Caribbean,"Santiago, Chile",Santiago,,,https://web.archive.org/web/20210118235233/http://www.respublica.cl/,https://web.archive.org/web/20210118235233/https://www.atlasnetwork.org/partners/global-directory/instituto-res-publica,-33.4489,-70.6693
atlas,LAMPADIA,Latin America and Caribbean,"Lima, Peru",Lima,,,https://web.archive.org/web/20210118235233/http://lampadia.com/,https://web.archive.org/web/20210118235233/https://www.atlasnetwork.org/partners/global-directory/lampadia,-12.0464,-77.0428
atlas,LIBERA,Latin America and Caribbean,"La Paz, Bolivia",La Paz,,,https://web.archive.org/web/20210118235233/http://www.liberabolivia.org/,https://web.archive.org/web/20210118235233/https://www.atlasnetwork.org/partners/global-directory/libera-bolivia-sociedad-civil,-16.5,-68.1193
atlas,LIBERTAD Y PROGRESO,Latin America and Caribbean,"Buenos Aires, Argentina",Buenos Aires,,,https://web.archive.org/web/20210118235233/http://www.libertadyprogreso.org/,https://web.archive.org/web/20210118235233/https://www.atlasnetwork.org/partners/global-directory/libertad-y-progreso,-34.603684,-58.381559
atlas,LIDERAZGO Y VISIÓN,Latin America and Caribbean,"Caracas, Venezuela",Caracas,,,https://web.archive.org/web/20210118235233/http://liderazgoyvision.com/,https://web.archive.org/web/20210118235233/https://www.atlasnetwork.org/partners/global-directory/liderazgo-y-vision-a.c,10.4915,-66.8983
atlas,LIVRES,Latin America and Caribbean,"São Paulo, Brazil",São Paulo,,,https://web.archive.org/web/20210118235233/http://www.eusoulivres.org/,https://web.archive.org/web/20210118235233/https://www.atlasnetwork.org/partners/global-directory/associacaeo-livres,-23.5505,-46.6333
atlas,MÉXICO EVALÚA,Latin America and Caribbean,"Mexico City, Mexico",Mexico City,,,https://web.archive.org/web/20210118235233/http://www.mexicoevalua.org/,https://web.archive.org/web/20210118235233/https://www.atlasnetwork.org/partners/global-directory/mexico-evalua,19.4326,-99.1332
atlas,MOVIMIENTO 300,Latin America and Caribbean,"San Salvador, El Salvador",San Salvador,,,https://web.archive.org/web/20210118235233/http://facebook.com/movimiento300,https://web.archive.org/web/20210118235233/https://www.atlasnetwork.org/partners/global-directory/movimiento-300,13.6929,-89.2182
atlas,NAPSA,Latin America and Caribbean,"Port-au-Prince, Haiti",Port-au-Prince,,,https://web.archive.org/web/20210118235233/http://facebook.com/napsaayiti,https://web.archive.org/web/20210118235233/https://www.atlasnetwork.org/partners/global-directory/napsa,18.5948,-72.3074
atlas,OBSERVATÓRIO DO EMPREENDEDOR,Latin America and Caribbean,"Florianópolis, Brazil",Florianópolis,,,https://web.archive.org/web/20210118235233/http://www.oemp.org.br/,https://web.archive.org/web/20210118235233/https://www.atlasnetwork.org/partners/global-directory/observatorio-do-empreendedor,-27.595377,-48.548037
atlas,STUDENTS FOR LIBERTY BRASIL,Latin America and Caribbean,"São Paulo, Brazil",São Paulo,,,https://web.archive.org/web/20210118235233/http://www.studentsforliberty.org/brasil/,https://web.archive.org/web/20210118235233/https://www.atlasnetwork.org/partners/global-directory/students-for-liberty-brasil,-23.5505,-46.6333
atlas,THE DEMOCRACY LAB,Latin America and Caribbean,"Heredia, Costa Rica",Heredia,,,https://web.archive.org/web/20210118235233/http://www.democracy-lab.org/,https://web.archive.org/web/20210118235233/https://www.atlasnetwork.org/partners/global-directory/democracy-lab,9.9986,-84.1162
atlas,THE NASSAU INSTITUTE,Latin America and Caribbean,"Nassau, The Bahamas",Nassau,,,https://web.archive.org/web/20210118235233/http://www.nassauinstitute.org/,https://web.archive.org/web/20210118235233/https://www.atlasnetwork.org/partners/global-directory/nassau-institute,25.0582,-77.3431
atlas,UNIVERSIDAD FRANCISCO MARROQUÍN,Latin America and Caribbean,"Guatemala City, Guatemala",Guatemala City,,,https://web.archive.org/web/20210118235233/http://www.ufm.edu/english/,https://web.archive.org/web/20210118235233/https://www.atlasnetwork.org/partners/global-directory/universidad-francisco-marroquin,14.634915,-90.506882
atlas,UNIVERSO ÁGORA ASOCIACIÓN CIVIL,Latin America and Caribbean,"Buenos Aires, Argentina",Buenos Aires,,,https://web.archive.org/web/20210118235233/http://www.dequesetrata.com.ar/,https://web.archive.org/web/20210118235233/https://www.atlasnetwork.org/partners/global-directory/universo-agora-asociacion-civil,-34.603684,-58.381559
atlas,VENPAÍS,Latin America and Caribbean,"Caracas, Venezuela",Caracas,,,https://web.archive.org/web/20210118235233/http://www.venpais.org/,https://web.archive.org/web/20210118235233/https://www.atlasnetwork.org/partners/global-directory/venpais,10.4915,-66.8983
atlas,VISION COLOMBIA 2022,Latin America and Caribbean,"Bogotá, Colombia",Bogotá,,,https://web.archive.org/web/20210118235233/http://www.pensamientosigloxxi.com/,https://web.archive.org/web/20210118235233/https://www.atlasnetwork.org/partners/global-directory/corporacion-pensamiento-siglo-xxi,4.611,-74.083
atlas,3H MOVEMENT,Europe and Central Asia,"Istanbul, Turkey",Istanbul,,,https://web.archive.org/web/20210516162509/http://3hhareketi.org/,https://web.archive.org/web/20210516162509/https://www.atlasnetwork.org/partners/global-directory/3h-liberty-rule-of-law-tolerance-movement,41.0082,28.9784
atlas,ACCESS TO INFORMATION PROGRAMME,Europe and Central Asia,"Sofia, Bulgaria",Sofia,,,https://web.archive.org/web/20210516162509/http://www.aip-bg.org/,https://web.archive.org/web/20210516162509/https://www.atlasnetwork.org/partners/global-directory/access-to-information-programme-foundation,42.6977,23.3219
atlas,ADAM SMITH CENTER FOR MARKET ECONOMY,Europe and Central Asia,"Moscow, Russia",Moscow,,,https://web.archive.org/web/20210516162509/http://www.adamsmith.ru/,https://web.archive.org/web/20210516162509/https://www.atlasnetwork.org/partners/global-directory/adam-smith-center-for-market-economy,55.7558,37.6173
atlas,ADAM SMITH INSTITUTE,Europe and Central Asia,"London, United Kingdom",London,,,https://web.archive.org/web/20210516162509/http://www.adamsmith.org/,https://web.archive.org/web/20210516162509/https://www.atlasnetwork.org/partners/global-directory/adam-smith-institute,51.5074,-0.1278
atlas,ANDRIKI,Europe and Central Asia,"Reykjvík, Iceland",Reykjvík,,,https://web.archive.org/web/20210516162509/http://www.andriki.is/,https://web.archive.org/web/20210516162509/https://www.atlasnetwork.org/partners/global-directory/andriki,64.1355,-21.8954
atlas,ASSOCIATION FOR LIBERAL THINKING,Europe and Central Asia,"Ankara, Turkey",Ankara,,,https://web.archive.org/web/20210516162509/http://www.liberal.org.tr/,https://web.archive.org/web/20210516162509/https://www.atlasnetwork.org/partners/global-directory/association-for-liberal-thinking,39.9334,32.8597
atlas,ASSOCIATION POUR LA LIBERTE ECONOMIQUE ET LE PROGRES SOCIAL,Europe and Central Asia,"Paris, France",Paris,,,https://web.archive.org/web/20210516162509/http://www.libres.org/,https://web.archive.org/web/20210516162509/https://www.atlasnetwork.org/partners/global-directory/association-pour-la-liberte-economique-et-le-progres-social,48.8566,2.3522
atlas,AUSTRIAN ECONOMICS CENTER,Europe and Central Asia,"Vienna, Austria",Vienna,,,https://web.archive.org/web/20210516162509/http://www.austriancenter.com/,https://web.archive.org/web/20210516162509/https://www.atlasnetwork.org/partners/global-directory/austrian-economics-center,48.2082,16.3738
atlas,AVENIR SUISSE,Europe and Central Asia,"Zurich, Switzerland",Zurich,,,https://web.archive.org/web/20210516162509/http://www.avenir-suisse.ch/,https://web.archive.org/web/20210516162509/https://www.atlasnetwork.org/partners/global-directory/avenir-suisse,47.376886,8.541694
atlas,AYN RAND CENTER - EUROPE,Europe and Central Asia,"Belgrade, Serbia",Belgrade,,,https://web.archive.org/web/20210516162509/http://www.aynrandcentereurope.org/,https://web.archive.org/web/20210516162509/https://www.atlasnetwork.org/partners/global-directory/ayn-rand-center-europe,44.7866,20.4489
atlas,AYN RAND CENTRE UK,Europe and Central Asia,"London, United Kingdom",London,,,https://web.archive.org/web/20210516162509/http://aynrandcentre.co.uk/,https://web.archive.org/web/20210516162509/https://www.atlasnetwork.org/partners/global-directory/ayn-rand-centre,51.5074,-0.1278
atlas,BENDUKIDZE FREE MARKET CENTER,Europe and Central Asia,"Kyiv, Ukraine",Kyiv,,,https://web.archive.org/web/20210516162509/http://www.bendukidze.org/,https://web.archive.org/web/20210516162509/https://www.atlasnetwork.org/partners/global-directory/bendukidze-free-market-center,50.4501,30.5234
atlas,BIG BROTHER WATCH,Europe and Central Asia,"London, United Kingdom",London,,,https://web.archive.org/web/20210516162509/http://www.bigbrotherwatch.org.uk/,https://web.archive.org/web/20210516162509/https://www.atlasnetwork.org/partners/global-directory/big-brother-watch,51.5074,-0.1278
atlas,BULGARIAN LIBERTARIAN SOCIETY,Europe and Central Asia,"Sofia, Bulgaria",Sofia,,,https://web.archive.org/web/20210516162509/http://libsociety.org/,https://web.archive.org/web/20210516162509/https://www.atlasnetwork.org/partners/global-directory/bulgarian-libertarian-society,42.6977,23.3219
atlas,CENTER FOR ANTI-AUTHORITARIAN STUDIES (CAAS),Europe and Central Asia,"Belgrade, Serbia",Belgrade,,,https://web.archive.org/web/20210516162509/http://www.caas.rs/,https://web.archive.org/web/20210516162509/https://www.atlasnetwork.org/partners/global-directory/center-for-anti-authoritarian-studies,44.7866,20.4489
atlas,CENTER FOR POLITISKE STUDIER (CEPOS),Europe and Central Asia,"Copenhagen, Denmark",Copenhagen,,,https://web.archive.org/web/20210516162509/http://www.cepos.dk/,https://web.archive.org/web/20210516162509/https://www.atlasnetwork.org/partners/global-directory/center-for-political-studies-center-for-politiske-studier,55.6761,12.5683
atlas,CENTER FOR PUBLIC POLICY AND ECONOMIC ANALYSIS,Europe and Central Asia,"Zenica, Bosnia and Herzegovina",Zenica,,,https://web.archive.org/web/20210516162509/http://www.cpa-bih.org/,https://web.archive.org/web/20210516162509/https://www.atlasnetwork.org/partners/global-directory/center-for-public-policy-and-economic-analysis,44.2024,17.9063
atlas,CENTER FOR SOCIAL AND ECONOMIC RESEARCH,Europe and Central Asia,"Kyiv, Ukraine",Kyiv,,,https://web.archive.org/web/20210516162509/http://www.case-ukraine.com.ua/,https://web.archive.org/web/20210516162509/https://www.atlasnetwork.org/partners/global-directory/center-for-social-and-economic-research,50.4501,30.5234
atlas,CENTER OF INSTITUTIONAL ANALYSIS AND DEVELOPMENT ELEUTHERIA (CADI),Europe and Central Asia,"Bucharest, Romania",Bucharest,,,https://web.archive.org/web/20210516162509/http://www.cadi.ro/,https://web.archive.org/web/20210516162509/https://www.atlasnetwork.org/partners/global-directory/center-for-institutional-analysis-and-development,44.4268,26.1025
atlas,CENTRAL ASIAN FREE MARKET INSTITUTE (CAFMI),Europe and Central Asia,"Bishkek, Kyrgyzstan",Bishkek,,,https://web.archive.org/web/20210516162509/http://www.cafmi.kg/ru,https://web.archive.org/web/20210516162509/https://www.atlasnetwork.org/partners/global-directory/central-asian-free-market-institute,42.8746,74.5698
atlas,CENTRE FOR ECONOMIC STRATEGY,Europe and Central Asia,"Kyiv, Ukraine",Kyiv,,,https://web.archive.org/web/20210516162509/http://ces.org.ua/en,https://web.archive.org/web/20210516162509/https://www.atlasnetwork.org/partners/global-directory/centre-for-economic-strategy,50.4501,30.5234
atlas,"CENTRE FOR ENTERPRISE, MARKETS AND ETHICS",Europe and Central Asia,"Oxford, United Kingdom",Oxford,,,https://web.archive.org/web/20210516162509/http://www.theceme.org/,https://web.archive.org/web/20210516162509/https://www.atlasnetwork.org/partners/global-directory/center-for-enterprise-markets-and-ethics,51.754816,-1.254367
atlas,CENTRE FOR POLICY STUDIES,Europe and Central Asia,"London, United Kingdom",London,,,https://web.archive.org/web/20210516162509/http://www.cps.org.uk/,https://web.archive.org/web/20210516162509/https://www.atlasnetwork.org/partners/global-directory/centre-for-policy-studies,51.5074,-0.1278
atlas,CENTRE FOR PUBLIC POLICY AND ECONOMIC ANALYSIS,Europe and Central Asia,"Zagreb, Croatia",Zagreb,,,https://web.archive.org/web/20210516162509/http://cea-policy.hr/,https://web.archive.org/web/20210516162509/https://www.atlasnetwork.org/partners/global-directory/centre-for-public-policy-and-economic-analysis,45.815,15.9819
atlas,CENTRE FOR WELSH STUDIES,Europe and Central Asia,"Cardiff, United Kingdom",Cardiff,,,https://web.archive.org/web/20210516162509/http://www.centrefor.wales/,https://web.archive.org/web/20210516162509/https://www.atlasnetwork.org/partners/global-directory/centre-for-welsh-studies,51.481583,-3.17909
atlas,CENTRO DIEGO DE COVARRUBIAS,Europe and Central Asia,"Madrid, Spain",Madrid,,,https://web.archive.org/web/20210516162509/http://centrocovarrubias.org/,https://web.archive.org/web/20210516162509/https://www.atlasnetwork.org/partners/global-directory/centro-diego-de-covarrubias,40.4168,-3.7038
atlas,CENTRUL INDEPENDENT PENTRU STUDII IN ECONOMIE SI DREPT (CISED),Europe and Central Asia,"Cluj-Napoca, Romania",Cluj-Napoca,,,https://web.archive.org/web/20210516162509/http://www.facebook.com/seminarhayek,https://web.archive.org/web/20210516162509/https://www.atlasnetwork.org/partners/global-directory/centrul-independent-pentru-studii-in-economie-si-drept-cised,46.7712,23.6236
atlas,CENTRUM FÖR RÄTTVISA,Europe and Central Asia,"Stockholm, Sweden",Stockholm,,,https://web.archive.org/web/20210516162509/http://www.centrumforrattvisa.se/,https://web.archive.org/web/20210516162509/https://www.atlasnetwork.org/partners/global-directory/centrum-for-rattvisa,59.3293,18.0686
atlas,CEVRO INSTITUTE,Europe and Central Asia,"Prague, Czech Republic",Prague,,,https://web.archive.org/web/20210516162509/http://www.cevroinstitut.cz/en,https://web.archive.org/web/20210516162509/https://www.atlasnetwork.org/partners/global-directory/cevro-institute,50.0755,14.4378
atlas,CIVIL DEVELOPMENT FORUM (FOR FOUNDATION),Europe and Central Asia,"Warszawa, Poland",Warszawa,,,https://web.archive.org/web/20210516162509/http://www.for.org.pl/,https://web.archive.org/web/20210516162509/https://www.atlasnetwork.org/partners/global-directory/civil-development-forum-forum-obywatelskiego-rozwoju,52.2297,21.0122
atlas,DAKTILO1984,Europe and Central Asia,"Ankara, Turkey",Ankara,,,https://web.archive.org/web/20210516162509/http://https//daktilo1984.com,https://web.archive.org/web/20210516162509/https://www.atlasnetwork.org/partners/global-directory/daktilo1984,39.9334,32.8597
atlas,DIGITAL MEDIA AND RESEARCH INSTITUTE,Europe and Central Asia,"Istanbul, Turkey",Istanbul,,,https://web.archive.org/web/20210516162509/http://www.digimar.org/,https://web.archive.org/web/20210516162509/https://www.atlasnetwork.org/partners/global-directory/digital-media-and-research-institute,41.0082,28.9784
atlas,EASYBUSINESS,Europe and Central Asia,"Kyiv, Ukraine",Kyiv,,,https://web.archive.org/web/20210516162509/http://www.easybusiness.in.ua/,https://web.archive.org/web/20210516162509/https://www.atlasnetwork.org/partners/global-directory/easybusiness,50.4501,30.5234
atlas,EBS CENTRE FOR FREE ECONOMIC THOUGHT,Europe and Central Asia,"Tallinn, Estonia",Tallinn,,,https://web.archive.org/web/20210516162509/http://ebs.ee/en/vmk,https://web.archive.org/web/20210516162509/https://www.atlasnetwork.org/partners/global-directory/center-for-free-economic-thought,59.4372,24.7536
atlas,EDMUND BURKE INSTITUTE,Europe and Central Asia,"Gorey, Ireland",Gorey,,,https://web.archive.org/web/20210516162509/http://www.edmundburkeinstitute.ie/,https://web.archive.org/web/20210516162509/https://www.atlasnetwork.org/partners/global-directory/edmund-burke-institute,52.5111,-6.0425
atlas,EKONOMICHNA PRAVDA,Europe and Central Asia,"Kyiv, Ukraine",Kyiv,,,https://web.archive.org/web/20210516162509/http://www.epravda.com.ua/,https://web.archive.org/web/20210516162509/https://www.atlasnetwork.org/partners/global-directory/ekonomichna-pravda,50.4501,30.5234
atlas,EUROPEAN CENTRE FOR INTERNATIONAL POLITICAL ECONOMY,Europe and Central Asia,"Brussels, Belgium",Brussels,,,https://web.archive.org/web/20210516162509/http://www.ecipe.org/,https://web.archive.org/web/20210516162509/https://www.atlasnetwork.org/partners/global-directory/european-centre-for-international-political-economy,50.8503,4.3517
atlas,EUROPEAN POLICY INFORMATION CENTER (EPICENTER),Europe and Central Asia,"Brussels, Belgium",Brussels,,,https://web.archive.org/web/20210516162509/http://www.epicenternetwork.eu/,https://web.archive.org/web/20210516162509/https://www.atlasnetwork.org/partners/global-directory/european-policy-information-center,50.8503,4.3517
atlas,EUROPEAN STUDENTS FOR LIBERTY,Europe and Central Asia,"Tbilisi, Georgia",Tbilisi,,,https://web.archive.org/web/20210516162509/http://www.studentsforliberty.org/europe,https://web.archive.org/web/20210516162509/https://www.atlasnetwork.org/partners/global-directory/european-students-for-liberty,41.7151,44.8271
atlas,F. A. V. HAYEK INSTITUTE,Europe and Central Asia,"Vienna, Austria",Vienna,,,https://web.archive.org/web/20210516162509/http://www.hayek-institut.at/,https://web.archive.org/web/20210516162509/https://www.atlasnetwork.org/partners/global-directory/f.-a.-v.-hayek-institute,48.2082,16.3738
atlas,FORO REGULACIÓN INTELIGENTE,Europe and Central Asia,"Madrid, Spain",Madrid,,,https://web.archive.org/web/20210516162509/http://regulacioninteligente.org/,https://web.archive.org/web/20210516162509/https://www.atlasnetwork.org/partners/global-directory/foro-regulacion-inteligente,40.4168,-3.7038
atlas,FREE MARKET FOUNDATION,Europe and Central Asia,"Veszprem, Hungary",Veszprem,,,https://web.archive.org/web/20210516162509/http://szabadpiacalapitvany.hu/,https://web.archive.org/web/20210516162509/https://www.atlasnetwork.org/partners/global-directory/free-market-foundation,47.0919,17.9144
atlas,FREE TRADE EUROPA,Europe and Central Asia,"Stockholm, Sweden",Stockholm,,,https://web.archive.org/web/20210516162509/http://www.freetradeeuropa.eu/,https://web.archive.org/web/20210516162509/https://www.atlasnetwork.org/partners/global-directory/free-trade-europa,59.3293,18.0686
atlas,FREEDOM AND ENTREPRENEURSHIP FOUNDATION,Europe and Central Asia,"Katowice, Poland",Katowice,,,https://web.archive.org/web/20210516162509/http://www.fundacjawip.org/,https://web.archive.org/web/20210516162509/https://www.atlasnetwork.org/partners/global-directory/freedom-and-entrepreneurship-foundation,50.2649,19.0238
atlas,FREEDOM RESEARCH ASSOCIATION,Europe and Central Asia,"Ankara, Turkey",Ankara,,,https://web.archive.org/web/20210516162509/http://oad.org.tr/en,https://web.archive.org/web/20210516162509/https://www.atlasnetwork.org/partners/global-directory/freedom-research-association,39.9334,32.8597
atlas,FREEDOM TODAY NETWORK,Europe and Central Asia,"Bonn, Germany",Bonn,,,https://web.archive.org/web/20210516162509/http://ftn.media/,https://web.archive.org/web/20210516162509/https://www.atlasnetwork.org/partners/global-directory/freedom-today-network,50.7374,7.0982
atlas,FUNDACIÓN CIVISMO,Europe and Central Asia,"Madrid, Spain",Madrid,,,https://web.archive.org/web/20210516162509/http://www.civismo.org/en,https://web.archive.org/web/20210516162509/https://www.atlasnetwork.org/partners/global-directory/civismo,40.4168,-3.7038
atlas,FUNDACIÓN INTERNACIONAL PARA LA LIBERTAD,Europe and Central Asia,"Madrid, Spain",Madrid,,,https://web.archive.org/web/20210516162509/http://www.fundacionfil.org/,https://web.archive.org/web/20210516162509/https://www.atlasnetwork.org/partners/global-directory/fundacion-internacional-para-la-libertad,40.4168,-3.7038
atlas,FUNDACIÓN PARA EL ANÁLISIS Y LOS ESTUDIOS SOCIALES,Europe and Central Asia,"Madrid, Spain",Madrid,,,https://web.archive.org/web/20210516162509/http://www.fundacionfaes.org/en/,https://web.archive.org/web/20210516162509/https://www.atlasnetwork.org/partners/global-directory/fundacion-para-el-analisis-y-los-estudios-sociales,40.4168,-3.7038
atlas,FUNDACIÓN PARA EL AVANCE DE LA LIBERTAD,Europe and Central Asia,"Madrid, Spain",Madrid,,,https://web.archive.org/web/20210516162509/http://www.fundalib.org/,https://web.archive.org/web/20210516162509/https://www.atlasnetwork.org/partners/global-directory/fundacion-para-el-avance-de-la-libertad,40.4168,-3.7038
atlas,FUNDACJA LIBERTE!,Europe and Central Asia,"Łódź, Poland",Łódź,,,https://web.archive.org/web/20210516162509/http://www.liberte.pl/,https://web.archive.org/web/20210516162509/https://www.atlasnetwork.org/partners/global-directory/liberte,51.7592,19.456
atlas,GENERATIONLIBRE,Europe and Central Asia,"Paris, France",Paris,,,https://web.archive.org/web/20210516162509/http://generationlibre.eu/,https://web.archive.org/web/20210516162509/https://www.atlasnetwork.org/partners/global-directory/generation-libre,48.8566,2.3522
atlas,GENEVA NETWORK,Europe and Central Asia,"Fordingbridge, United Kingdom",Fordingbridge,,,https://web.archive.org/web/20210516162509/http://www.geneva-network.com/,https://web.archive.org/web/20210516162509/https://www.atlasnetwork.org/partners/global-directory/geneva-network,50.9992,-1.7861
atlas,GLOBAL COMMUNICATION NETWORK,Europe and Central Asia,"Budva, Montenegro",Budva,,,https://web.archive.org/web/20210516162509/http://www.mgcn.org/,https://web.archive.org/web/20210516162509/https://www.atlasnetwork.org/partners/global-directory/global-communication-network,42.2885,18.84
atlas,ICELANDIC RESEARCH CENTRE FOR INNOVATION AND ECONOMIC GROWTH,Europe and Central Asia,"Reykjavik, Iceland",Reykjavik,,,https://web.archive.org/web/20210516162509/http://www.rnh.is/,https://web.archive.org/web/20210516162509/https://www.atlasnetwork.org/partners/global-directory/icelandic-research-centre-for-innovation-and-economic-growth,64.1355,-21.8954
atlas,INITIATIVE FOR FREE TRADE,Europe and Central Asia,"London, United Kingdom",London,,,https://web.archive.org/web/20210516162509/http://www.ifreetrade.org/,https://web.archive.org/web/20210516162509/https://www.atlasnetwork.org/partners/global-directory/ift-ltd,51.5074,-0.1278
atlas,INSTITUCIÓN FUTURO,Europe and Central Asia,"Cordovilla, Spain",Cordovilla,,,https://web.archive.org/web/20210516162509/http://www.ifuturo.org/,https://web.archive.org/web/20210516162509/https://www.atlasnetwork.org/partners/global-directory/institucion-futuro,42.6333,-1.6333
atlas,INSTITUT COPPET,Europe and Central Asia,"Paris, France",Paris,,,https://web.archive.org/web/20210516162509/http://www.institutcoppet.org/,https://web.archive.org/web/20210516162509/https://www.atlasnetwork.org/partners/global-directory/institut-coppet,48.8566,2.3522
atlas,INSTITUT OSTROM CATALUNYA,Europe and Central Asia,"Barcelona, Spain",Barcelona,,,https://web.archive.org/web/20210516162509/http://www.institutostrom.org/en,https://web.archive.org/web/20210516162509/https://www.atlasnetwork.org/partners/global-directory/institut-ostrom-catalunya,41.3851,2.1734
