[
  {
    "institution": "atlas",
    "org_name": "ACTON INSTITUTE",
    "region": "North America",
    "location": "Grand Rapids, MI",
    "city": "Grand Rapids",
    "state_province": "MI",
    "country": "",
    "website": "https://web.archive.org/web/20210108014853/http://www.acton.org/",
    "sourcewatch_page_url": "https://web.archive.org/web/20210108014853/https://www.atlasnetwork.org/partners/global-directory/acton-institute",
    "lat": "42.9634",
    "lon": "-85.6681"
  },
  {
    "institution": "atlas",
    "org_name": "ADVOCATES FOR SELF GOVERNMENT",
    "region": "North America",
    "location": "Sacramento, CA",
    "city": "Sacramento",
    "state_province": "CA",
    "country": "",
    "website": "https://web.archive.org/web/20210108014853/http://theadvocates.org/",
    "sourcewatch_page_url": "https://web.archive.org/web/20210108014853/https://www.atlasnetwork.org/partners/global-directory/advocates-for-self-government",
    "lat": "38.5816",
    "lon": "-121.4944"
  },
  {
    "institution": "atlas",
    "org_name": "ALABAMA POLICY INSTITUTE",
    "region": "North America",
    "location": "Birmingham, AL",
    "city": "Birmingham",
    "state_province": "AL",
    "country": "",
    "website": "https://web.archive.org/web/20210108014853/http://www.alabamapolicy.org/",
    "sourcewatch_page_url": "https://web.archive.org/web/20210108014853/https://www.atlasnetwork.org/partners/global-directory/alabama-policy-institute",
    "lat": "33.5186",
    "lon": "-86.8104"
  },
  {
    "institution": "atlas",
    "org_name": "ALABAMA POLICY INSTITUTE",
    "region": "North America",
    "location": "Birmingham, Alabama, United States",
    "city": "",
    "state_province": "AL",
    "country": "",
    "website": "http://www.alabamapolicy.org/",
    "sourcewatch_page_url": "https://www.sourcewatch.org/index.php?title=Alabama_Policy_Institute",
    "lat": "33.5186",
    "lon": "-86.8104"
  },
  {
    "institution": "atlas",
    "org_name": "ALASKA POLICY FORUM",
    "region": "North America",
    "location": "Anchorage, AK",
    "city": "Anchorage",
    "state_province": "AK",
    "country": "",
    "website": "https://web.archive.org/web/20210108014853/http://www.alaskapolicyforum.org/",
    "sourcewatch_page_url": "https://web.archive.org/web/20210108014853/https://www.atlasnetwork.org/partners/global-directory/alaska-policy-forum",
    "lat": "61.2181",
    "lon": "-149.8631"
  },
  {
    "institution": "spn",
    "org_name": "Alaska Policy Forum",
    "region": "North America",
    "location": "Anchorage, Alaska, USA",
    "city": "",
    "state_province": "Alaska",
    "country": "",
    "website": "http://www.alaskapolicyforum.org",
    "sourcewatch_page_url": "https://www.sourcewatch.org/index.php?title=Alaska_Policy_Forum",
    "lat": "61.2181",
    "lon": "-149.8631"
  },
  {
    "institution": "atlas",
    "org_name": "AMERICA'S FUTURE FOUNDATION",
    "region": "North America",
    "location": "Washington, DC",
    "city": "Washington",
    "state_province": "DC",
    "country": "",
    "website": "https://web.archive.org/web/20210108014853/http://americasfuture.org/",
    "sourcewatch_page_url": "https://web.archive.org/web/20210108014853/https://www.atlasnetwork.org/partners/global-directory/americas-future-foundation",
    "lat": "38.89511",
    "lon": "-77.03637"
  },
  {
    "institution": "atlas",
    "org_name": "AMERICAN CONSUMER INSTITUTE, CENTER FOR CITIZEN RESEARCH",
    "region": "North America",
    "location": "Washington, DC",
    "city": "Washington",
    "state_province": "DC",
    "country": "",
    "website": "https://web.archive.org/web/20210108014853/http://www.theamericanconsumer.org/",
    "sourcewatch_page_url": "https://web.archive.org/web/20210108014853/https://www.atlasnetwork.org/partners/global-directory/american-consumer-institute-center-for-citizen-research",
    "lat": "38.89511",
    "lon": "-77.03637"
  },
  {
    "institution": "atlas",
    "org_name": "AMERICAN ENTERPRISE INSTITUTE",
    "region": "North America",
    "location": "Washington, DC",
    "city": "Washington",
    "state_province": "DC",
    "country": "",
    "website": "https://web.archive.org/web/20210108014853/http://www.aei.org/",
    "sourcewatch_page_url": "https://web.archive.org/web/20210108014853/https://www.atlasnetwork.org/partners/global-directory/american-enterprise-institute",
    "lat": "38.89511",
    "lon": "-77.03637"
  },
  {
    "institution": "atlas",
    "org_name": "AMERICAN FEDERATION FOR CHILDREN",
    "region": "North America",
    "location": "Washington, DC",
    "city": "Washington",
    "state_province": "DC",
    "country": "",
    "website": "https://web.archive.org/web/20210108014853/http://www.federationforchildren.com/",
    "sourcewatch_page_url": "https://web.archive.org/web/20210108014853/https://www.atlasnetwork.org/partners/global-directory/american-federation-for-children",
    "lat": "38.89511",
    "lon": "-77.03637"
  },
  {
    "institution": "atlas",
    "org_name": "AMERICAN INSTITUTE FOR ECONOMIC RESEARCH",
    "region": "North America",
    "location": "Great Barrington, MA",
    "city": "Great Barrington",
    "state_province": "MA",
    "country": "",
    "website": "https://web.archive.org/web/20210108014853/http://www.aier.org/",
    "sourcewatch_page_url": "https://web.archive.org/web/20210108014853/https://www.atlasnetwork.org/partners/global-directory/american-institute-for-economic-research",
    "lat": "42.1954",
    "lon": "-73.3644"
  },
  {
    "institution": "atlas",
    "org_name": "AMERICAN JURIS LINK",
    "region": "North America",
    "location": "Phoenix, AZ",
    "city": "Phoenix",
    "state_province": "AZ",
    "country": "",
    "website": "https://web.archive.org/web/20210108014853/http://www.americanjurislink.org/",
    "sourcewatch_page_url": "https://web.archive.org/web/20210108014853/https://www.atlasnetwork.org/partners/global-directory/american-juris-link",
    "lat": "33.4484",
    "lon": "-112.074"
  },
  {
    "institution": "atlas",
    "org_name": "AMERICAN LEGISLATIVE EXCHANGE COUNCIL",
    "region": "North America",
    "location": "Arlington, VA",
    "city": "Arlington",
    "state_province": "VA",
    "country": "",
    "website": "https://web.archive.org/web/20210108014853/http://www.alec.org/",
    "sourcewatch_page_url": "https://web.archive.org/web/20210108014853/https://www.atlasnetwork.org/partners/global-directory/american-legislative-exchange-council",
    "lat": "38.8833",
    "lon": "-77.1068"
  },
  {
    "institution": "atlas",
    "org_name": "AMERICAN LEGISLATIVE EXCHANGE COUNCIL",
    "region": "North America",
    "location": "Washington, DC",
    "city": "Washington",
    "state_province": "DC",
    "country": "",
    "website": "https://web.archive.org/web/20190521152925/http://www.alec.org/",
    "sourcewatch_page_url": "https://web.archive.org/web/20190521152925/https://www.atlasnetwork.org/partners/global-directory/american-legislative-exchange-council",
    "lat": "38.89511",
    "lon": "-77.03637"
  },
  {
    "institution": "atlas",
    "org_name": "AMERICANS FOR TAX REFORM FOUNDATION",
    "region": "North America",
    "location": "Washington, DC",
    "city": "Washington",
    "state_province": "DC",
    "country": "",
    "website": "https://web.archive.org/web/20210108014853/http://www.atr.org/",
    "sourcewatch_page_url": "https://web.archive.org/web/20210108014853/https://www.atlasnetwork.org/partners/global-directory/americans-for-tax-reform",
    "lat": "38.89511",
    "lon": "-77.03637"
  },
  {
    "institution": "atlas",
    "org_name": "ARCHBRIDGE INSTITUTE",
    "region": "North America",
    "location": "Washington, DC",
    "city": "Washington",
    "state_province": "DC",
    "country": "",
    "website": "https://web.archive.org/web/20210108014853/http://www.archbridgeinstitute.org/",
    "sourcewatch_page_url": "https://web.archive.org/web/20210108014853/https://www.atlasnetwork.org/partners/global-directory/archbridge-institute",
    "lat": "38.89511",
    "lon": "-77.03637"
  },
  {
    "institution": "atlas",
    "org_name": "ARCHBRIDGE INSTITUTE",
    "region": "North America",
    "location": "Woodbridge, VA",
    "city": "Woodbridge",
    "state_province": "VA",
    "country": "",
    "website": "https://web.archive.org/web/20190521152925/http://www.archbridgeinstitute.org/",
    "sourcewatch_page_url": "https://web.archive.org/web/20190521152925/https://www.atlasnetwork.org/partners/global-directory/archbridge-institute",
    "lat": "38.6404",
    "lon": "-77.2508"
  },
  {
    "institution": "atlas",
    "org_name": "ARIZONA CENTER FOR PHILOSOPHY OF FREEDOM",
    "region": "North America",
    "location": "Tuscon, AZ",
    "city": "Tuscon",
    "state_province": "AZ",
    "country": "",
    "website": "https://web.archive.org/web/20210108014853/http://www.freedomcenter.arizona.edu/",
    "sourcewatch_page_url": "https://web.archive.org/web/20210108014853/https://www.atlasnetwork.org/partners/global-directory/arizona-center-for-philosophy-of-freedom",
    "lat": "32.2226",
    "lon": "-110.9747"
  },
  {
    "institution": "atlas",
    "org_name": "ARKANSAS CENTER FOR RESEARCH IN ECONOMICS",
    "region": "North America",
    "location": "Conway, AR",
    "city": "Conway",
    "state_province": "AR",
    "country": "",
    "website": "https://web.archive.org/web/20210108014853/http://uca.edu/acre/",
    "sourcewatch_page_url": "https://web.archive.org/web/20210108014853/https://www.atlasnetwork.org/partners/global-directory/arkansas-center-for-research-in-economics",
    "lat": "35.0993",
    "lon": "-92.4419"
  },
  {
    "institution": "atlas",
    "org_name": "ARKANSAS POLICY FOUNDATION",
    "region": "North America",
    "location": "Little Rock, AR",
    "city": "Little Rock",
    "state_province": "AR",
    "country": "",
    "website": "https://web.archive.org/web/20210108014853/http://www.arkansaspolicyfoundation.org/",
    "sourcewatch_page_url": "https://web.archive.org/web/20210108014853/https://www.atlasnetwork.org/partners/global-directory/arkansas-policy-foundation",
    "lat": "34.7465",
    "lon": "-92.2896"
  },
  {
    "institution": "atlas",
    "org_name": "ARKANSAS POLICY FOUNDATION",
    "region": "North America",
    "location": "Little Rock, Arkansas, USA",
    "city": "Little Rock",
    "state_province": "AR",
    "country": "",
    "website": "http://www.arkansaspolicyfoundation.org/",
    "sourcewatch_page_url": "https://www.sourcewatch.org/index.php?title=Arkansas_Policy_Foundation",
    "lat": "34.7465",
    "lon": "-92.2896"
  },
  {
    "institution": "atlas",
    "org_name": "AYN RAND INSTITUTE",
    "region": "North America",
    "location": "Santa Ana, CA",
    "city": "Santa Ana",
    "state_province": "CA",
    "country": "",
    "website": "https://web.archive.org/web/20210108014853/http://ari.aynrand.org/",
    "sourcewatch_page_url": "https://web.archive.org/web/20210108014853/https://www.atlasnetwork.org/partners/global-directory/ayn-rand-institute",
    "lat": "33.7455",
    "lon": "-117.8677"
  },
  {
    "institution": "atlas",
    "org_name": "AYN RAND INSTITUTE",
    "region": "North America",
    "location": "Irvine, CA",
    "city": "Irvine",
    "state_province": "CA",
    "country": "",
    "website": "https://web.archive.org/web/20190521152925/http://ari.aynrand.org/",
    "sourcewatch_page_url": "https://web.archive.org/web/20190521152925/https://www.atlasnetwork.org/partners/global-directory/ayn-rand-institute",
    "lat": "33.6846",
    "lon": "-117.8265"
  },
  {
    "institution": "atlas",
    "org_name": "AYN RAND INSTITUTE",
    "region": "North America",
    "location": "Los Angeles, CA, USA",
    "city": "",
    "state_province": "CA",
    "country": "",
    "website": "http://www.aynrand.org/",
    "sourcewatch_page_url": "",
    "lat": "34.0522",
    "lon": "-118.2437"
  },
  {
    "institution": "atlas",
    "org_name": "BADGER INSTITUTE",
    "region": "North America",
    "location": "Milwaukee, WI",
    "city": "Milwaukee",
    "state_province": "WI",
    "country": "",
    "website": "https://web.archive.org/web/20210108014853/http://badgerinstitute.org/BI.htm",
    "sourcewatch_page_url": "https://web.archive.org/web/20210108014853/https://www.atlasnetwork.org/partners/global-directory/badger-institute",
    "lat": "43.0389",
    "lon": "-87.9065"
  },
  {
    "institution": "spn",
    "org_name": "Badger Institute",
    "region": "North America",
    "location": "Milwaukee, Wisconsin, USA",
    "city": "",
    "state_province": "Wisconsin",
    "country": "",
    "website": "http://www.badgerinstitute.org",
    "sourcewatch_page_url": "https://www.sourcewatch.org/index.php?title=Badger_Institute",
    "lat": "43.0389",
    "lon": "-87.9065"
  },
  {
    "institution": "atlas",
    "org_name": "BALLOTPEDIA",
    "region": "North America",
    "location": "Middleton, WI",
    "city": "Middleton",
    "state_province": "WI",
    "country": "",
    "website": "https://web.archive.org/web/20210108014853/http://www.ballotpdia.org/",
    "sourcewatch_page_url": "https://web.archive.org/web/20210108014853/https://www.atlasnetwork.org/partners/global-directory/Ballotpedia",
    "lat": "43.0975",
    "lon": "-89.5043"
  },
  {
    "institution": "atlas",
    "org_name": "BEACON CENTER OF TENNESSEE",
    "region": "North America",
    "location": "Nashville, TN",
    "city": "Nashville",
    "state_province": "TN",
    "country": "",
    "website": "https://web.archive.org/web/20210108014853/http://www.beacontn.org/",
    "sourcewatch_page_url": "https://web.archive.org/web/20210108014853/https://www.atlasnetwork.org/partners/global-directory/beacon-center-of-tennessee",
    "lat": "36.1627",
    "lon": "-86.7816"
  },
  {
    "institution": "spn",
    "org_name": "Beacon Center of Tennessee",
    "region": "North America",
    "location": "Tennessee, USA",
    "city": "",
    "state_province": "Tennessee",
    "country": "",
    "website": "http://www.beacontn.org",
    "sourcewatch_page_url": "https://www.sourcewatch.org/index.php?title=Beacon_Center_of_Tennessee",
    "lat": "35.747845",
    "lon": "-86.692345"
  },
  {
    "institution": "atlas",
    "org_name": "BECKET",
    "region": "North America",
    "location": "Washington, DC",
    "city": "Washington",
    "state_province": "DC",
    "country": "",
    "website": "https://web.archive.org/web/20210108014853/http://www.becketfund.org/",
    "sourcewatch_page_url": "https://web.archive.org/web/20210108014853/https://www.atlasnetwork.org/partners/global-directory/becket",
    "lat": "38.89511",
    "lon": "-77.03637"
  },
  {
    "institution": "atlas",
    "org_name": "BETTER CITIES PROJECT",
    "region": "North America",
    "location": "Las Vegas, NV",
    "city": "Las Vegas",
    "state_province": "NV",
    "country": "",
    "website": "https://web.archive.org/web/20210108014853/http://www.better-cities.org/",
    "sourcewatch_page_url": "https://web.archive.org/web/20210108014853/https://www.atlasnetwork.org/partners/global-directory/better-cities-project",
    "lat": "36.1699",
    "lon": "-115.1398"
  },
  {
    "institution": "atlas",
    "org_name": "BILL OF RIGHTS INSTITUTE",
    "region": "North America",
    "location": "Arlington, VA",
    "city": "Arlington",
    "state_province": "VA",
    "country": "",
    "website": "https://web.archive.org/web/20210108014853/http://www.billofrightsinstitute.org/",
    "sourcewatch_page_url": "https://web.archive.org/web/20210108014853/https://www.atlasnetwork.org/partners/global-directory/bill-of-rights-institute",
    "lat": "38.8833",
    "lon": "-77.1068"
  },
  {
    "institution": "atlas",
    "org_name": "BLACKSTONE & BURKE CENTER FOR LAW AND LIBERTY",
    "region": "North America",
    "location": "Montgomery, AL",
    "city": "Montgomery",
    "state_province": "AL",
    "country": "",
    "website": "https://web.archive.org/web/20210108014853/http://www.blackstoneandburke.com/",
    "sourcewatch_page_url": "https://web.archive.org/web/20210108014853/https://www.atlasnetwork.org/partners/global-directory/the-blackstone-and-burke-center-for-law-and-liberty",
    "lat": "32.3668",
    "lon": "-86.3"
  },
  {
    "institution": "atlas",
    "org_name": "BLUEGRASS INSTITUTE FOR PUBLIC POLICY SOLUTIONS",
    "region": "North America",
    "location": "Lexington, KY",
    "city": "Lexington",
    "state_province": "KY",
    "country": "",
    "website": "https://web.archive.org/web/20210108014853/http://www.bipps.org/",
    "sourcewatch_page_url": "https://web.archive.org/web/20210108014853/https://www.atlasnetwork.org/partners/global-directory/bluegrass-institute-for-public-policy-solutions1",
    "lat": "38.0406",
    "lon": "-84.5037"
  },
  {
    "institution": "atlas",
    "org_name": "BLUEGRASS INSTITUTE FOR PUBLIC POLICY SOLUTIONS",
    "region": "North America",
    "location": "",
    "city": "",
    "state_province": "KY",
    "country": "",
    "website": "http://www.billofrightsinstitute.org/",
    "sourcewatch_page_url": "",
    "lat": "",
    "lon": ""
  },
  {
    "institution": "atlas",
    "org_name": "BLUEGRASS INSTITUTE FOR PUBLIC POLICY SOLUTIONS",
    "region": "North America",
    "location": "Frankfort, KY, USA",
    "city": "",
    "state_province": "KY",
    "country": "",
    "website": "www.bipps.org",
    "sourcewatch_page_url": "https://www.sourcewatch.org/index.php?title=Bluegrass_Institute_for_Public_Policy_Solutions",
    "lat": "38.2009",
    "lon": "-84.8733"
  },
  {
    "institution": "atlas",
    "org_name": "BLUEGRASS INSTITUTE FOR PUBLIC POLICY SOLUTIONS",
    "region": "North America",
    "location": "Bowling Green, KY United States",
    "city": "Bowling Green",
    "state_province": "KY",
    "country": "",
    "website": "",
    "sourcewatch_page_url": "https://web.archive.org/web/20050908075856/http://www.atlasusa.org/directory/institute_profile.php?refer=directory&org_id=683",
    "lat": "36.9685",
    "lon": "-86.4453"
  },
  {
    "institution": "atlas",
    "org_name": "BROAD + LIBERTY",
    "region": "North America",
    "location": "Philadelphia, PA",
    "city": "Philadelphia",
    "state_province": "PA",
    "country": "",
    "website": "https://web.archive.org/web/20210108014853/http://www.broadandliberty.com/",
    "sourcewatch_page_url": "https://web.archive.org/web/20210108014853/https://www.atlasnetwork.org/partners/global-directory/broad-liberty",
    "lat": "39.9526",
    "lon": "-75.1652"
  },
  {
    "institution": "atlas",
    "org_name": "CAESAR RODNEY INSTITUTE",
    "region": "North America",
    "location": "Dover, DE",
    "city": "Dover",
    "state_province": "DE",
    "country": "",
    "website": "https://web.archive.org/web/20210108014853/http://www.caesarrodney.org/",
    "sourcewatch_page_url": "https://web.archive.org/web/20210108014853/https://www.atlasnetwork.org/partners/global-directory/caesar-rodney-institute",
    "lat": "39.1582",
    "lon": "-75.5244"
  },
  {
    "institution": "spn",
    "org_name": "Caesar Rodney Institute",
    "region": "North America",
    "location": "Delaware, United States",
    "city": "",
    "state_province": "Delaware",
    "country": "",
    "website": "http://www.caesarrodney.org",
    "sourcewatch_page_url": "https://www.sourcewatch.org/index.php?title=Caesar_Rodney_Institute",
    "lat": "39.1458",
    "lon": "-75.428"
  },
  {
    "institution": "atlas",
    "org_name": "CALIFORNIA POLICY CENTER",
    "region": "North America",
    "location": "Tustin, CA",
    "city": "Tustin",
    "state_province": "CA",
    "country": "",
    "website": "https://web.archive.org/web/20210108014853/http://calpolicycenter.org/",
    "sourcewatch_page_url": "https://web.archive.org/web/20210108014853/https://www.atlasnetwork.org/partners/global-directory/california-policy-center",
    "lat": "33.7455",
    "lon": "-117.8265"
  },
  {
    "institution": "spn",
    "org_name": "California Policy Center",
    "region": "North America",
    "location": "Irvine, California, USA",
    "city": "",
    "state_province": "California",
    "country": "",
    "website": "http://californiapolicycenter.org",
    "sourcewatch_page_url": "https://www.sourcewatch.org/index.php?title=California_Policy_Center",
    "lat": "33.6846",
    "lon": "-117.8265"
  },
  {
    "institution": "atlas",
    "org_name": "CALVIN COOLIDGE PRESIDENTIAL FOUNDATION",
    "region": "North America",
    "location": "Plymouth, VT",
    "city": "Plymouth",
    "state_province": "VT",
    "country": "",
    "website": "https://web.archive.org/web/20210108014853/http://coolidgefoundation.org/",
    "sourcewatch_page_url": "https://web.archive.org/web/20210108014853/https://www.atlasnetwork.org/partners/global-directory/calvin-coolidge-presidential-foundation",
    "lat": "43.6102",
    "lon": "-72.6824"
  },
  {
    "institution": "atlas",
    "org_name": "CAPITAL RESEARCH CENTER",
    "region": "North America",
    "location": "Washington, DC",
    "city": "Washington",
    "state_province": "DC",
    "country": "",
    "website": "https://web.archive.org/web/20210108014853/http://www.capitalresearch.org/",
    "sourcewatch_page_url": "https://web.archive.org/web/20210108014853/https://www.atlasnetwork.org/partners/global-directory/capital-research-center",
    "lat": "38.89511",
    "lon": "-77.03637"
  },
  {
    "institution": "atlas",
    "org_name": "CARDINAL INSTITUTE FOR WEST VIRGINIA POLICY",
    "region": "North America",
    "location": "Charleston, WV",
    "city": "Charleston",
    "state_province": "WV",
    "country": "",
    "website": "https://web.archive.org/web/20210108014853/http://cardinalinstitute.com/",
    "sourcewatch_page_url": "https://web.archive.org/web/20210108014853/https://www.atlasnetwork.org/partners/global-directory/cardinal-institute-for-west-virginia-policy",
    "lat": "38.3498",
    "lon": "-81.6326"
  },
  {
    "institution": "atlas",
    "org_name": "CATO INSTITUTE",
    "region": "North America",
    "location": "Washington, DC",
    "city": "Washington",
    "state_province": "DC",
    "country": "",
    "website": "https://web.archive.org/web/20210108014853/http://www.cato.org/",
    "sourcewatch_page_url": "https://web.archive.org/web/20210108014853/https://www.atlasnetwork.org/partners/global-directory/cato-institute",
    "lat": "38.89511",
    "lon": "-77.03637"
  },
  {
    "institution": "atlas",
    "org_name": "CENTER FOR ECONOMIC ACCOUNTABILITY",
    "region": "North America",
    "location": "Grosse Pointe Woods, MI",
    "city": "Grosse Pointe Woods",
    "state_province": "MI",
    "country": "",
    "website": "https://web.archive.org/web/20210108014853/http://www.economicaccountability.org/",
    "sourcewatch_page_url": "https://web.archive.org/web/20210108014853/https://www.atlasnetwork.org/partners/global-directory/center-for-economic-accountability",
    "lat": "42.4934",
    "lon": "-82.9114"
  },
  {
    "institution": "atlas",
    "org_name": "CENTER FOR INDEPENDENT THOUGHT",
    "region": "North America",
    "location": "Philadelphia, PA",
    "city": "Philadelphia",
    "state_province": "PA",
    "country": "",
    "website": "https://web.archive.org/web/20210108014853/http://www.centerforindependentthought.org/",
    "sourcewatch_page_url": "https://web.archive.org/web/20210108014853/https://www.atlasnetwork.org/partners/global-directory/center-for-independent-thought",
    "lat": "39.9526",
    "lon": "-75.1652"
  },
  {
    "institution": "atlas",
    "org_name": "CENTER FOR INDEPENDENT THOUGHT",
    "region": "North America",
    "location": "Levittown, NY",
    "city": "Levittown",
    "state_province": "NY",
    "country": "",
    "website": "https://web.archive.org/web/20190521152925/http://www.centerforindependentthought.org/",
    "sourcewatch_page_url": "https://web.archive.org/web/20190521152925/https://www.atlasnetwork.org/partners/global-directory/center-for-independent-thought",
    "lat": "40.123",
    "lon": "-73.5"
  },
  {
    "institution": "atlas",
    "org_name": "CENTER FOR PUBLIC CHOICE & MARKET PROCESS",
    "region": "North America",
    "location": "Charleston, SC",
    "city": "Charleston",
    "state_province": "SC",
    "country": "",
    "website": "https://web.archive.org/web/20210108014853/http://sb.cofc.edu/centers/publicchoice/",
    "sourcewatch_page_url": "https://web.archive.org/web/20210108014853/https://www.atlasnetwork.org/partners/global-directory/initiative-for-public-choice-market-process",
    "lat": "32.7765",
    "lon": "-79.9311"
  },
  {
    "institution": "atlas",
    "org_name": "CENTER FOR THE STUDY OF ECONOMIC LIBERTY",
    "region": "North America",
    "location": "Tempe, AZ",
    "city": "Tempe",
    "state_province": "AZ",
    "country": "",
    "website": "https://web.archive.org/web/20210108014853/http://csel.asu.edu/",
    "sourcewatch_page_url": "https://web.archive.org/web/20210108014853/https://www.atlasnetwork.org/partners/global-directory/center-for-the-study-of-economic-liberty-at-arizona-state-university",
    "lat": "33.4255",
    "lon": "-111.94"
  },
  {
    "institution": "atlas",
    "org_name": "CENTER FOR THE STUDY OF LIBERTY",
    "region": "North America",
    "location": "Carmel, IN",
    "city": "Carmel",
    "state_province": "IN",
    "country": "",
    "website": "https://web.archive.org/web/20210108014853/http://www.studyliberty.org/",
    "sourcewatch_page_url": "https://web.archive.org/web/20210108014853/https://www.atlasnetwork.org/partners/global-directory/center-for-the-study-of-liberty",
    "lat": "39.9784",
    "lon": "-86.118"
  },
  {
    "institution": "atlas",
    "org_name": "CENTRO PARA RENOVACI\u00d3N ECON\u00d3MICA, CRECIMIENTO Y EXCELENCIA",
    "region": "North America",
    "location": "San Juan, PR",
    "city": "San Juan",
    "state_province": "PR",
    "country": "",
    "website": "https://web.archive.org/web/20210108014853/http://www.centrocrece.org/",
    "sourcewatch_page_url": "https://web.archive.org/web/20210108014853/https://www.atlasnetwork.org/partners/global-directory/centro-para-renovacion-economica-crecimiento-y-excelencia1",
    "lat": "18.4655",
    "lon": "-66.1057"
  },
  {
    "institution": "atlas",
    "org_name": "CENTRO PARA RENOVACI\u00d3N ECON\u00d3MICA, CRECIMIENTO Y EXCELENCIA",
    "region": "North America",
    "location": "San Juan, Puerto Rico, USA",
    "city": "San Juan",
    "state_province": "Puerto Rico",
    "country": "",
    "website": "",
    "sourcewatch_page_url": "",
    "lat": "18.4655",
    "lon": "-66.1057"
  },
  {
    "institution": "atlas",
    "org_name": "CERTELL, INC.",
    "region": "North America",
    "location": "Indianapolis, IN",
    "city": "Indianapolis",
    "state_province": "IN",
    "country": "",
    "website": "https://web.archive.org/web/20210108014853/http://www.certell.org/",
    "sourcewatch_page_url": "https://web.archive.org/web/20210108014853/https://www.atlasnetwork.org/partners/global-directory/certell-inc",
    "lat": "39.7684",
    "lon": "-86.1581"
  },
  {
    "institution": "atlas",
    "org_name": "CHARTER CITIES INSTITUTE",
    "region": "North America",
    "location": "Washington, DC",
    "city": "Washington",
    "state_province": "DC",
    "country": "",
    "website": "https://web.archive.org/web/20210108014853/http://www.chartercitiesinstitute.org/",
    "sourcewatch_page_url": "https://web.archive.org/web/20210108014853/https://www.atlasnetwork.org/partners/global-directory/charter-cities-institute",
    "lat": "38.89511",
    "lon": "-77.03637"
  },
  {
    "institution": "atlas",
    "org_name": "CIVITAS INSTITUTE",
    "region": "North America",
    "location": "Raleigh, NC",
    "city": "Raleigh",
    "state_province": "NC",
    "country": "",
    "website": "https://web.archive.org/web/20210108014853/http://www.nccivitas.org/",
    "sourcewatch_page_url": "https://web.archive.org/web/20210108014853/https://www.atlasnetwork.org/partners/global-directory/civitas-institute",
    "lat": "35.7796",
    "lon": "-78.6382"
  },
  {
    "institution": "atlas",
    "org_name": "CIVITAS INSTITUTE",
    "region": "North America",
    "location": "",
    "city": "",
    "state_province": "NC",
    "country": "",
    "website": "www.mill-institut-freiheitsforschung.de",
    "sourcewatch_page_url": "",
    "lat": "",
    "lon": ""
  },
  {
    "institution": "atlas",
    "org_name": "CLEMSON INSTITUTE FOR THE STUDY OF CAPITALISM",
    "region": "North America",
    "location": "Clemson, SC",
    "city": "Clemson",
    "state_province": "SC",
    "country": "",
    "website": "https://web.archive.org/web/20210108014853/http://www.clemson.edu/capitalism/",
    "sourcewatch_page_url": "https://web.archive.org/web/20210108014853/https://www.atlasnetwork.org/partners/global-directory/clemson-institute-for-the-study-of-capitalism",
    "lat": "34.6739",
    "lon": "-82.8375"
  },
  {
    "institution": "atlas",
    "org_name": "COMMON SENSE INSTITUTE",
    "region": "North America",
    "location": "Greenwood Village, CO",
    "city": "Greenwood Village",
    "state_province": "CO",
    "country": "",
    "website": "https://web.archive.org/web/20210108014853/http://www.commonsenseinstituteco.org/",
    "sourcewatch_page_url": "https://web.archive.org/web/20210108014853/https://www.atlasnetwork.org/partners/global-directory/common-sense-policy-roundtable-forum",
    "lat": "39.6056",
    "lon": "-104.9509"
  },
  {
    "institution": "atlas",
    "org_name": "COMMONWEALTH FOUNDATION",
    "region": "North America",
    "location": "Harrisburg, PA",
    "city": "Harrisburg",
    "state_province": "PA",
    "country": "",
    "website": "https://web.archive.org/web/20210108014853/http://www.commonwealthfoundation.org/",
    "sourcewatch_page_url": "https://web.archive.org/web/20210108014853/https://www.atlasnetwork.org/partners/global-directory/commonwealth-foundation",
    "lat": "40.2732",
    "lon": "-76.8844"
  },
  {
    "institution": "spn",
    "org_name": "Commonwealth Foundation",
    "region": "North America",
    "location": "Harrisburg, Pennsylvania, USA",
    "city": "",
    "state_province": "Pennsylvania",
    "country": "",
    "website": "http://www.commonwealthfoundation.org",
    "sourcewatch_page_url": "https://www.sourcewatch.org/index.php?title=Commonwealth_Foundation",
    "lat": "40.2732",
    "lon": "-76.8844"
  },
  {
    "institution": "atlas",
    "org_name": "COMPACT FOR AMERICA EDUCATIONAL FOUNDATION",
    "region": "North America",
    "location": "Houston, TX",
    "city": "Houston",
    "state_province": "TX",
    "country": "",
    "website": "https://web.archive.org/web/20210108014853/http://compactforamerica.org/",
    "sourcewatch_page_url": "https://web.archive.org/web/20210108014853/https://www.atlasnetwork.org/partners/global-directory/compact-for-america-educational-foundation",
    "lat": "29.7604",
    "lon": "-95.3698"
  },
  {
    "institution": "atlas",
    "org_name": "COMPACT FOR AMERICA EDUCATIONAL FOUNDATION",
    "region": "North America",
    "location": "United States",
    "city": "",
    "state_province": "",
    "country": "",
    "website": "https://web.archive.org/web/20190521152925/http://www.compactforamerica.org/",
    "sourcewatch_page_url": "https://web.archive.org/web/20190521152925/https://www.atlasnetwork.org/partners/global-directory/compact-for-america-educational-foundation",
    "lat": "37.0902",
    "lon": "-95.7129"
  },
  {
    "institution": "atlas",
    "org_name": "COMPETITIVE ENTERPRISE INSTITUTE",
    "region": "North America",
    "location": "Washington, DC",
    "city": "Washington",
    "state_province": "DC",
    "country": "",
    "website": "https://web.archive.org/web/20210108014853/http://www.cei.org/",
    "sourcewatch_page_url": "https://web.archive.org/web/20210108014853/https://www.atlasnetwork.org/partners/global-directory/competitive-enterprise-institute",
    "lat": "38.89511",
    "lon": "-77.03637"
  },
  {
    "institution": "atlas",
    "org_name": "CONSCIOUS CAPITALISM",
    "region": "North America",
    "location": "Warren, MI",
    "city": "Warren",
    "state_province": "MI",
    "country": "",
    "website": "https://web.archive.org/web/20210108014853/http://www.consciouscapitalism.org/",
    "sourcewatch_page_url": "https://web.archive.org/web/20210108014853/https://www.atlasnetwork.org/partners/global-directory/conscious-capitalism",
    "lat": "42.5149",
    "lon": "-83.0149"
  },
  {
    "institution": "atlas",
    "org_name": "CONSCIOUS CAPITALISM",
    "region": "North America",
    "location": "Portland, OR",
    "city": "Portland",
    "state_province": "OR",
    "country": "",
    "website": "https://web.archive.org/web/20190521152925/http://www.consciouscapitalism.org/",
    "sourcewatch_page_url": "https://web.archive.org/web/20190521152925/https://www.atlasnetwork.org/partners/global-directory/conscious-capitalism",
    "lat": "45.523451",
    "lon": "-122.676207"
  },
  {
    "institution": "atlas",
    "org_name": "CONSUMER CHOICE CENTER",
    "region": "North America",
    "location": "Arlington, VA",
    "city": "Arlington",
    "state_province": "VA",
    "country": "",
    "website": "https://web.archive.org/web/20210108014853/http://consumerchoicecenter.org/",
    "sourcewatch_page_url": "https://web.archive.org/web/20210108014853/https://www.atlasnetwork.org/partners/global-directory/consumer-choice-center",
    "lat": "38.8833",
    "lon": "-77.1068"
  },
  {
    "institution": "atlas",
    "org_name": "CONSUMER CHOICE CENTER",
    "region": "North America",
    "location": "Washington, DC",
    "city": "Washington",
    "state_province": "DC",
    "country": "",
    "website": "https://web.archive.org/web/20190521152925/http://consumerchoicecenter.org/",
    "sourcewatch_page_url": "https://web.archive.org/web/20190521152925/https://www.atlasnetwork.org/partners/global-directory/consumer-choice-center",
    "lat": "38.89511",
    "lon": "-77.03637"
  },
  {
    "institution": "atlas",
    "org_name": "ECONOMIC THINKING",
    "region": "North America",
    "location": "Seattle, WA",
    "city": "Seattle",
    "state_province": "WA",
    "country": "",
    "website": "https://web.archive.org/web/20210108014853/http://www.economicthinking.org/",
    "sourcewatch_page_url": "https://web.archive.org/web/20210108014853/https://www.atlasnetwork.org/partners/global-directory/economic-thinking",
    "lat": "47.6062",
    "lon": "-122.3321"
  },
  {
    "institution": "atlas",
    "org_name": "ED SNIDER CENTER FOR ENTERPRISE & MARKETS",
    "region": "North America",
    "location": "College Park, MD",
    "city": "College Park",
    "state_province": "MD",
    "country": "",
    "website": "https://web.archive.org/web/20210108014853/http://www.rhsmith.umd.edu/centers-excellence/snider-center-enterprise-markets",
    "sourcewatch_page_url": "https://web.archive.org/web/20210108014853/https://www.atlasnetwork.org/partners/global-directory/ed-snider-center-for-enterprise-markets",
    "lat": "38.9872",
    "lon": "-76.9378"
  },
  {
    "institution": "atlas",
    "org_name": "EMPIRE CENTER FOR PUBLIC POLICY",
    "region": "North America",
    "location": "Albany, NY",
    "city": "Albany",
    "state_province": "NY",
    "country": "",
    "website": "https://web.archive.org/web/20210108014853/http://www.empirecenter.org/",
    "sourcewatch_page_url": "https://web.archive.org/web/20210108014853/https://www.atlasnetwork.org/partners/global-directory/empire-center-for-public-policy",
    "lat": "42.6526",
    "lon": "-73.7562"
  },
  {
    "institution": "spn",
    "org_name": "Empire Center for Public Policy",
    "region": "North America",
    "location": "Albany, New York, USA",
    "city": "",
    "state_province": "New York",
    "country": "",
    "website": "http://www.empirecenter.org",
    "sourcewatch_page_url": "https://www.sourcewatch.org/index.php?title=Empire_Center_for_Public_Policy",
    "lat": "42.6526",
    "lon": "-73.7562"
  },
  {
    "institution": "atlas",
    "org_name": "ETHAN ALLEN INSTITUTE",
    "region": "North America",
    "location": "Montpelier, VT",
    "city": "Montpelier",
    "state_province": "VT",
    "country": "",
    "website": "https://web.archive.org/web/20210108014853/http://www.ethanallen.org/",
    "sourcewatch_page_url": "https://web.archive.org/web/20210108014853/https://www.atlasnetwork.org/partners/global-directory/ethan-allen-institute",
    "lat": "44.2601",
    "lon": "-72.5754"
  },
  {
    "institution": "atlas",
    "org_name": "ETHAN ALLEN INSTITUTE",
    "region": "North America",
    "location": "Concord, VT",
    "city": "Concord",
    "state_province": "VT",
    "country": "",
    "website": "https://web.archive.org/web/20190521152925/http://www.ethanallen.org/",
    "sourcewatch_page_url": "https://web.archive.org/web/20190521152925/https://www.atlasnetwork.org/partners/global-directory/ethan-allen-institute",
    "lat": "44.2002",
    "lon": "-72.1504"
  },
  {
    "institution": "atlas",
    "org_name": "EXCELINED",
    "region": "North America",
    "location": "Tallahassee, FL",
    "city": "Tallahassee",
    "state_province": "FL",
    "country": "",
    "website": "https://web.archive.org/web/20210108014853/http://www.excelined.org/",
    "sourcewatch_page_url": "https://web.archive.org/web/20210108014853/https://www.atlasnetwork.org/partners/global-directory/foundation-for-excellence-in-education",
    "lat": "30.4383",
    "lon": "-84.2807"
  },
  {
    "institution": "atlas",
    "org_name": "FEDERALIST SOCIETY FOR LAW AND PUBLIC POLICY STUDIES",
    "region": "North America",
    "location": "Washington, DC",
    "city": "Washington",
    "state_province": "DC",
    "country": "",
    "website": "https://web.archive.org/web/20210108014853/http://fedsoc.org/",
    "sourcewatch_page_url": "https://web.archive.org/web/20210108014853/https://www.atlasnetwork.org/partners/global-directory/federalist-society-for-law-and-public-policy-studies",
    "lat": "38.89511",
    "lon": "-77.03637"
  },
  {
    "institution": "atlas",
    "org_name": "FIRST LIBERTY INSTITUTE",
    "region": "North America",
    "location": "Plano, TX",
    "city": "Plano",
    "state_province": "TX",
    "country": "",
    "website": "https://web.archive.org/web/20210108014853/http://firstliberty.org/",
    "sourcewatch_page_url": "https://web.archive.org/web/20210108014853/https://www.atlasnetwork.org/partners/global-directory/first-liberty-institute",
    "lat": "33.0198",
    "lon": "-96.6989"
  },
  {
    "institution": "atlas",
    "org_name": "FOUNDATION FOR GOVERNMENT ACCOUNTABILITY",
    "region": "North America",
    "location": "Naples, FL",
    "city": "Naples",
    "state_province": "FL",
    "country": "",
    "website": "https://web.archive.org/web/20210108014853/http://www.thefga.org/",
    "sourcewatch_page_url": "https://web.archive.org/web/20210108014853/https://www.atlasnetwork.org/partners/global-directory/foundation-for-government-accountability",
    "lat": "26.142038",
    "lon": "-81.794857"
  },
  {
    "institution": "atlas",
    "org_name": "FOUNDATION FOR GOVERNMENT ACCOUNTABILITY",
    "region": "North America",
    "location": "City, FL, USA",
    "city": "",
    "state_province": "FL",
    "country": "",
    "website": "www.floridafga.org",
    "sourcewatch_page_url": "",
    "lat": "27.9944024",
    "lon": "-81.7602544"
  },
  {
    "institution": "spn",
    "org_name": "Foundation for Government Accountability",
    "region": "North America",
    "location": "Tallahassee, Florida, USA",
    "city": "",
    "state_province": "Florida",
    "country": "",
    "website": "https://thefga.org",
    "sourcewatch_page_url": "https://www.sourcewatch.org/index.php?title=Foundation_for_Government_Accountability",
    "lat": "30.4383",
    "lon": "-84.2807"
  },
  {
    "institution": "atlas",
    "org_name": "FOUNDATION FOR INDIVIDUAL RIGHTS IN EDUCATION (FIRE)",
    "region": "North America",
    "location": "Philadelphia, PA",
    "city": "Philadelphia",
    "state_province": "PA",
    "country": "",
    "website": "https://web.archive.org/web/20210108014853/http://www.thefire.org/",
    "sourcewatch_page_url": "https://web.archive.org/web/20210108014853/https://www.atlasnetwork.org/partners/global-directory/foundation-for-individual-rights-in-education-fire",
    "lat": "39.9526",
    "lon": "-75.1652"
  },
  {
    "institution": "atlas",
    "org_name": "FRANKLIN NEWS FOUNDATION",
    "region": "North America",
    "location": "Chicago, IL",
    "city": "Chicago",
    "state_province": "IL",
    "country": "",
    "website": "https://web.archive.org/web/20210108014853/http://www.franklinnews.org/",
    "sourcewatch_page_url": "https://web.archive.org/web/20210108014853/https://www.atlasnetwork.org/partners/global-directory/franklin-news",
    "lat": "41.8781",
    "lon": "-87.6298"
  },
  {
    "institution": "atlas",
    "org_name": "FREE THE PEOPLE FOUNDATION",
    "region": "North America",
    "location": "Washington, DC",
    "city": "Washington",
    "state_province": "DC",
    "country": "",
    "website": "https://web.archive.org/web/20210108014853/http://freethepeople.org/",
    "sourcewatch_page_url": "https://web.archive.org/web/20210108014853/https://www.atlasnetwork.org/partners/global-directory/free-the-people",
    "lat": "38.89511",
    "lon": "-77.03637"
  },
  {
    "institution": "atlas",
    "org_name": "FREE TO CHOOSE NETWORK",
    "region": "North America",
    "location": "Erie, PA",
    "city": "Erie",
    "state_province": "PA",
    "country": "",
    "website": "https://web.archive.org/web/20210108014853/http://www.freetochoosemedia.org/",
    "sourcewatch_page_url": "https://web.archive.org/web/20210108014853/https://www.atlasnetwork.org/partners/global-directory/free-to-choose-network",
    "lat": "42.1292",
    "lon": "-80.0851"
  },
  {
    "institution": "atlas",
    "org_name": "FREE TO CHOOSE NETWORK",
    "region": "North America",
    "location": "Philadelphia, PA, USA",
    "city": "",
    "state_province": "PA",
    "country": "",
    "website": "http://www.freetochoosemedia.org/",
    "sourcewatch_page_url": "",
    "lat": "39.9526",
    "lon": "-75.1652"
  },
  {
    "institution": "atlas",
    "org_name": "FREEDOM & VIRTUE INSTITUTE",
    "region": "North America",
    "location": "Fort Myers, FL",
    "city": "Fort Myers",
    "state_province": "FL",
    "country": "",
    "website": "https://web.archive.org/web/20210108014853/http://www.fvinstitute.org/",
    "sourcewatch_page_url": "https://web.archive.org/web/20210108014853/https://www.atlasnetwork.org/partners/global-directory/the-freedom-virtue-institute",
    "lat": "26.6406",
    "lon": "-81.8723"
  },
  {
    "institution": "atlas",
    "org_name": "GENETIC LITERACY PROJECT",
    "region": "North America",
    "location": "Cincinnati, OH",
    "city": "Cincinnati",
    "state_province": "OH",
    "country": "",
    "website": "https://web.archive.org/web/20210108014853/http://www.geneticliteracyproject.org/",
    "sourcewatch_page_url": "https://web.archive.org/web/20210108014853/https://www.atlasnetwork.org/partners/global-directory/genetic-literacy-project",
    "lat": "39.1031",
    "lon": "-84.512"
  },
  {
    "institution": "atlas",
    "org_name": "GEORGIA CENTER FOR OPPORTUNITY",
    "region": "North America",
    "location": "Peachtree Corners, GA",
    "city": "Peachtree Corners",
    "state_province": "GA",
    "country": "",
    "website": "https://web.archive.org/web/20210108014853/http://georgiaopportunity.org/",
    "sourcewatch_page_url": "https://web.archive.org/web/20210108014853/https://www.atlasnetwork.org/partners/global-directory/georgia-center-for-opportunity",
    "lat": "33.9704",
    "lon": "-84.225"
  },
  {
    "institution": "atlas",
    "org_name": "GEORGIA CENTER FOR OPPORTUNITY",
    "region": "North America",
    "location": "Norcross, GA",
    "city": "Norcross",
    "state_province": "GA",
    "country": "",
    "website": "https://web.archive.org/web/20190521152925/http://georgiaopportunity.org/",
    "sourcewatch_page_url": "https://web.archive.org/web/20190521152925/https://www.atlasnetwork.org/partners/global-directory/georgia-center-for-opportunity",
    "lat": "33.9416",
    "lon": "-84.2193"
  },
  {
    "institution": "spn",
    "org_name": "Georgia Center for Opportunity",
    "region": "North America",
    "location": "Atlanta, Georgia, USA",
    "city": "",
    "state_province": "Georgia Center for Opportunity",
    "country": "",
    "website": "http://www.GeorgiaOpportunity.org",
    "sourcewatch_page_url": "https://www.sourcewatch.org/index.php?title=Georgia_Center_for_Opportunity",
    "lat": "33.749",
    "lon": "-84.388"
  },
  {
    "institution": "atlas",
    "org_name": "GEORGIA PUBLIC POLICY FOUNDATION",
    "region": "North America",
    "location": "Atlanta, GA",
    "city": "Atlanta",
    "state_province": "GA",
    "country": "",
    "website": "https://web.archive.org/web/20210108014853/http://www.gppf.org/",
    "sourcewatch_page_url": "https://web.archive.org/web/20210108014853/https://www.atlasnetwork.org/partners/global-directory/georgia-public-policy-foundation",
    "lat": "33.749",
    "lon": "-84.388"
  },
  {
    "institution": "spn",
    "org_name": "Georgia Public Policy Foundation",
    "region": "North America",
    "location": "Atlanta, Georgia, USA",
    "city": "",
    "state_province": "Georgia",
    "country": "",
    "website": "http://www.georgiapolicy.org",
    "sourcewatch_page_url": "https://www.sourcewatch.org/index.php?title=Georgia_Public_Policy_Foundation",
    "lat": "33.749",
    "lon": "-84.388"
  },
  {
    "institution": "atlas",
    "org_name": "GOLDWATER INSTITUTE",
    "region": "North America",
    "location": "Phoenix, AZ",
    "city": "Phoenix",
    "state_province": "AZ",
    "country": "",
    "website": "https://web.archive.org/web/20210108014853/http://www.goldwaterinstitute.org/",
    "sourcewatch_page_url": "https://web.archive.org/web/20210108014853/https://www.atlasnetwork.org/partners/global-directory/goldwater-institute",
    "lat": "33.4484",
    "lon": "-112.074"
  },
  {
    "institution": "spn",
    "org_name": "Goldwater Institute",
    "region": "North America",
    "location": "Phoenix, Arizona, USA",
    "city": "",
    "state_province": "Arizona",
    "country": "",
    "website": "http://www.goldwaterinstitute.org",
    "sourcewatch_page_url": "https://www.sourcewatch.org/index.php?title=Goldwater_Institute",
    "lat": "33.4484",
    "lon": "-112.074"
  },
  {
    "institution": "atlas",
    "org_name": "GRASSROOT INSTITUTE OF HAWAII",
    "region": "North America",
    "location": "Honolulu, HI",
    "city": "Honolulu",
    "state_province": "HI",
    "country": "",
    "website": "https://web.archive.org/web/20210108014853/http://grassrootinstitute.org/",
    "sourcewatch_page_url": "https://web.archive.org/web/20210108014853/https://www.atlasnetwork.org/partners/global-directory/grassroot-institute-of-hawaii",
    "lat": "21.3069",
    "lon": "-157.8583"
  },
  {
    "institution": "spn",
    "org_name": "Grassroot Institute of Hawaii",
    "region": "North America",
    "location": "Honolulu, Hawaii, USA",
    "city": "",
    "state_province": "Hawaii",
    "country": "",
    "website": "http://new.grassrootinstitute.org",
    "sourcewatch_page_url": "https://www.sourcewatch.org/index.php?title=Grassroot_Institute_of_Hawaii",
    "lat": "21.3069",
    "lon": "-157.8583"
  },
  {
    "institution": "atlas",
    "org_name": "HERITAGE FOUNDATION",
    "region": "North America",
    "location": "Washington, DC",
    "city": "Washington",
    "state_province": "DC",
    "country": "",
    "website": "https://web.archive.org/web/20210108014853/http://www.heritage.org/",
    "sourcewatch_page_url": "https://web.archive.org/web/20210108014853/https://www.atlasnetwork.org/partners/global-directory/heritage-foundation",
    "lat": "38.89511",
    "lon": "-77.03637"
  },
  {
    "institution": "atlas",
    "org_name": "HOOVER INSTITUTION",
    "region": "North America",
    "location": "Stanford, CA",
    "city": "Stanford",
    "state_province": "CA",
    "country": "",
    "website": "https://web.archive.org/web/20210108014853/http://www.hoover.org/",
    "sourcewatch_page_url": "https://web.archive.org/web/20210108014853/https://www.atlasnetwork.org/partners/global-directory/hoover-institution",
    "lat": "37.4275",
    "lon": "-122.1697"
  },
  {
    "institution": "atlas",
    "org_name": "HUMAN RIGHTS FOUNDATION",
    "region": "North America",
    "location": "New York, NY",
    "city": "New York",
    "state_province": "NY",
    "country": "",
    "website": "https://web.archive.org/web/20210108014853/http://www.hrf.org/",
    "sourcewatch_page_url": "https://web.archive.org/web/20210108014853/https://www.atlasnetwork.org/partners/global-directory/human-rights-foundation",
    "lat": "40.7128",
    "lon": "-74.006"
  },
  {
    "institution": "atlas",
    "org_name": "IDAHO FREEDOM FOUNDATION",
    "region": "North America",
    "location": "Boise, ID",
    "city": "Boise",
    "state_province": "ID",
    "country": "",
    "website": "https://web.archive.org/web/20210108014853/http://www.idahofreedom.org/",
    "sourcewatch_page_url": "https://web.archive.org/web/20210108014853/https://www.atlasnetwork.org/partners/global-directory/idaho-freedom-foundation",
    "lat": "43.615",
    "lon": "-116.2023"
  },
  {
    "institution": "atlas",
    "org_name": "IDAHO FREEDOM FOUNDATION",
    "region": "North America",
    "location": "Boise, Idaho, USA",
    "city": "",
    "state_province": "ID",
    "country": "",
    "website": "http://www.idahofreedom.net/",
    "sourcewatch_page_url": "https://www.sourcewatch.org/index.php?title=Idaho_Freedom_Foundation",
    "lat": "43.615",
    "lon": "-116.2023"
  },
  {
    "institution": "atlas",
    "org_name": "IDEAS BEYOND BORDERS",
    "region": "North America",
    "location": "New York, NY",
    "city": "New York",
    "state_province": "NY",
    "country": "",
    "website": "https://web.archive.org/web/20210108014853/http://www.ideasbeyondborders.org/",
    "sourcewatch_page_url": "https://web.archive.org/web/20210108014853/https://www.atlasnetwork.org/partners/global-directory/ideas-beyond-borders",
    "lat": "40.7128",
    "lon": "-74.006"
  },
  {
    "institution": "atlas",
    "org_name": "ILLINOIS POLICY INSTITUTE",
    "region": "North America",
    "location": "Chicago, IL",
    "city": "Chicago",
    "state_province": "IL",
    "country": "",
    "website": "https://web.archive.org/web/20210108014853/http://www.illinoispolicy.org/",
    "sourcewatch_page_url": "https://web.archive.org/web/20210108014853/https://www.atlasnetwork.org/partners/global-directory/illinois-policy-institute",
    "lat": "41.8781",
    "lon": "-87.6298"
  },
  {
    "institution": "atlas",
    "org_name": "ILLINOIS POLICY INSTITUTE",
    "region": "North America",
    "location": "Springfield, IL USA",
    "city": "Springfield",
    "state_province": "IL",
    "country": "",
    "website": "",
    "sourcewatch_page_url": "https://web.archive.org/web/20040412193159/http://www.atlasusa.org/directory/institute_profile.php?refer=directory&org_id=559",
    "lat": "39.7817",
    "lon": "-89.6501"
  },
  {
    "institution": "spn",
    "org_name": "Illinois Policy Institute",
    "region": "North America",
    "location": "Chicago, Illinois, USA",
    "city": "",
    "state_province": "Illinois",
    "country": "",
    "website": "https://www.illinoispolicy.org",
    "sourcewatch_page_url": "https://www.sourcewatch.org/index.php?title=Illinois_Policy_Institute",
    "lat": "41.8781",
    "lon": "-87.6298"
  },
  {
    "institution": "atlas",
    "org_name": "INDEPENDENCE INSTITUTE",
    "region": "North America",
    "location": "Denver, CO",
    "city": "Denver",
    "state_province": "CO",
    "country": "",
    "website": "https://web.archive.org/web/20210108014853/http://www.i2i.org/",
    "sourcewatch_page_url": "https://web.archive.org/web/20210108014853/https://www.atlasnetwork.org/partners/global-directory/independence-institute",
    "lat": "39.7392",
    "lon": "-104.9903"
  },
  {
    "institution": "atlas",
    "org_name": "INDEPENDENCE INSTITUTE",
    "region": "North America",
    "location": "Golden, CO",
    "city": "Golden",
    "state_province": "CO",
    "country": "",
    "website": "https://web.archive.org/web/20190521152925/http://www.i2i.org/",
    "sourcewatch_page_url": "https://web.archive.org/web/20190521152925/https://www.atlasnetwork.org/partners/global-directory/independence-institute",
    "lat": "39.7555",
    "lon": "-105.2211"
  },
  {
    "institution": "spn",
    "org_name": "Independence Institute",
    "region": "North America",
    "location": "Denver, Colorado, USA",
    "city": "",
    "state_province": "Colorado",
    "country": "",
    "website": "http://www.i2i.org",
    "sourcewatch_page_url": "https://www.sourcewatch.org/index.php?title=Independence_Institute",
    "lat": "39.7392",
    "lon": "-104.9903"
  },
  {
    "institution": "atlas",
    "org_name": "INDEPENDENT INSTITUTE",
    "region": "North America",
    "location": "Oakland, CA",
    "city": "Oakland",
    "state_province": "CA",
    "country": "",
    "website": "https://web.archive.org/web/20210108014853/http://www.independent.org/",
    "sourcewatch_page_url": "https://web.archive.org/web/20210108014853/https://www.atlasnetwork.org/partners/global-directory/independent-institute",
    "lat": "37.8044",
    "lon": "-122.2711"
  },
  {
    "institution": "atlas",
    "org_name": "INDEPENDENT INSTITUTE",
    "region": "North America",
    "location": "California, USA",
    "city": "",
    "state_province": "CA",
    "country": "",
    "website": "http://www.independent.org/",
    "sourcewatch_page_url": "",
    "lat": "36.7783",
    "lon": "-119.4179"
  },
  {
    "institution": "atlas",
    "org_name": "INDEPENDENT WOMEN'S FORUM",
    "region": "North America",
    "location": "Winchester, VA",
    "city": "Winchester",
    "state_province": "VA",
    "country": "",
    "website": "https://web.archive.org/web/20210108014853/http://www.iwf.org/",
    "sourcewatch_page_url": "https://web.archive.org/web/20210108014853/https://www.atlasnetwork.org/partners/global-directory/independent-womens-forum",
    "lat": "39.1852",
    "lon": "-78.1659"
  },
  {
    "institution": "atlas",
    "org_name": "INDEPENDENT WOMEN'S FORUM",
    "region": "North America",
    "location": "Washington, DC",
    "city": "Washington",
    "state_province": "DC",
    "country": "",
    "website": "https://web.archive.org/web/20190521152925/http://www.iwf.org/",
    "sourcewatch_page_url": "https://web.archive.org/web/20190521152925/https://www.atlasnetwork.org/partners/global-directory/independent-womens-forum",
    "lat": "38.89511",
    "lon": "-77.03637"
  },
  {
    "institution": "atlas",
    "org_name": "INDEPENDENT WOMEN'S FORUM",
    "region": "North America",
    "location": "Arlington, VA USA",
    "city": "Arlington",
    "state_province": "VA",
    "country": "",
    "website": "",
    "sourcewatch_page_url": "https://web.archive.org/web/20040412193159/http://www.atlasusa.org/directory/institute_profile.php?refer=directory&org_id=424",
    "lat": "38.8833",
    "lon": "-77.1068"
  },
  {
    "institution": "atlas",
    "org_name": "INSTITUTE FOR FREE SPEECH",
    "region": "North America",
    "location": "Washington, DC",
    "city": "Washington",
    "state_province": "DC",
    "country": "",
    "website": "https://web.archive.org/web/20210108014853/http://www.ifs.org/",
    "sourcewatch_page_url": "https://web.archive.org/web/20210108014853/https://www.atlasnetwork.org/partners/global-directory/institute-for-free-speech",
    "lat": "38.89511",
    "lon": "-77.03637"
  },
  {
    "institution": "atlas",
    "org_name": "INSTITUTE FOR FREE SPEECH",
    "region": "North America",
    "location": "Arlington, VA",
    "city": "Arlington",
    "state_province": "VA",
    "country": "",
    "website": "https://web.archive.org/web/20190521152925/http://www.ifs.org/",
    "sourcewatch_page_url": "https://web.archive.org/web/20190521152925/https://www.atlasnetwork.org/partners/global-directory/center-for-competitive-politics",
    "lat": "38.8833",
    "lon": "-77.1068"
  },
  {
    "institution": "atlas",
    "org_name": "INSTITUTE FOR HUMANE STUDIES",
    "region": "North America",
    "location": "Arlington, VA",
    "city": "Arlington",
    "state_province": "VA",
    "country": "",
    "website": "https://web.archive.org/web/20210108014853/http://www.theihs.org/",
    "sourcewatch_page_url": "https://web.archive.org/web/20210108014853/https://www.atlasnetwork.org/partners/global-directory/institute-for-humane-studies",
    "lat": "38.8833",
    "lon": "-77.1068"
  },
  {
    "institution": "atlas",
    "org_name": "INSTITUTE FOR JUSTICE",
    "region": "North America",
    "location": "Arlington, VA",
    "city": "Arlington",
    "state_province": "VA",
    "country": "",
    "website": "https://web.archive.org/web/20210108014853/http://www.ij.org/",
    "sourcewatch_page_url": "https://web.archive.org/web/20210108014853/https://www.atlasnetwork.org/partners/global-directory/institute-for-justice",
    "lat": "38.8833",
    "lon": "-77.1068"
  },
  {
    "institution": "atlas",
    "org_name": "INSTITUTE FOR JUSTICE",
    "region": "North America",
    "location": "Washington, DC USA",
    "city": "Washington",
    "state_province": "DC",
    "country": "",
    "website": "",
    "sourcewatch_page_url": "https://web.archive.org/web/20040412193159/http://www.atlasusa.org/directory/institute_profile.php?refer=directory&org_id=220",
    "lat": "38.89511",
    "lon": "-77.03637"
  },
  {
    "institution": "atlas",
    "org_name": "INSTITUTE FOR POLICY INNOVATION",
    "region": "North America",
    "location": "Irving, TX",
    "city": "Irving",
    "state_province": "TX",
    "country": "",
    "website": "https://web.archive.org/web/20210108014853/http://www.ipi.org/",
    "sourcewatch_page_url": "https://web.archive.org/web/20210108014853/https://www.atlasnetwork.org/partners/global-directory/institute-for-policy-innovation",
    "lat": "32.814",
    "lon": "-96.948"
  },
  {
    "institution": "atlas",
    "org_name": "INSTITUTE FOR POLICY INNOVATION",
    "region": "North America",
    "location": "Lewisville, TX, USA",
    "city": "Lewisville",
    "state_province": "TX",
    "country": "",
    "website": "http://www.ipi.org",
    "sourcewatch_page_url": "https://web.archive.org/web/20040412193159/http://www.atlasusa.org/directory/institute_profile.php?refer=directory&org_id=223",
    "lat": "33.0485",
    "lon": "-96.9942"
  },
  {
    "institution": "atlas",
    "org_name": "INSTITUTE FOR PRINCIPLE STUDIES",
    "region": "North America",
    "location": "Modesto, CA",
    "city": "Modesto",
    "state_province": "CA",
    "country": "",
    "website": "https://web.archive.org/web/20210108014853/http://principlestudies.org/",
    "sourcewatch_page_url": "https://web.archive.org/web/20210108014853/https://www.atlasnetwork.org/partners/global-directory/institute-for-principle-studies",
    "lat": "37.6391",
    "lon": "-120.9969"
  },
  {
    "institution": "atlas",
    "org_name": "INTERCOLLEGIATE STUDIES INSTITUTE",
    "region": "North America",
    "location": "Wilmington, DE",
    "city": "Wilmington",
    "state_province": "DE",
    "country": "",
    "website": "https://web.archive.org/web/20210108014853/http://home.isi.org/",
    "sourcewatch_page_url": "https://web.archive.org/web/20210108014853/https://www.atlasnetwork.org/partners/global-directory/intercollegiate-studies-institute-inc",
    "lat": "39.7392",
    "lon": "-75.5398"
  },
  {
    "institution": "atlas",
    "org_name": "INTERCOLLEGIATE STUDIES INSTITUTE",
    "region": "North America",
    "location": "Newark, DE, USA",
    "city": "",
    "state_province": "DE",
    "country": "",
    "website": "http://www.isi.org/",
    "sourcewatch_page_url": "",
    "lat": "39.6851",
    "lon": "-75.7505"
  },
  {
    "institution": "atlas",
    "org_name": "INTERNATIONAL CENTER FOR LAW & ECONOMICS",
    "region": "North America",
    "location": "Portland, OR",
    "city": "Portland",
    "state_province": "OR",
    "country": "",
    "website": "https://web.archive.org/web/20210108014853/http://www.laweconcenter.org/",
    "sourcewatch_page_url": "https://web.archive.org/web/20210108014853/https://www.atlasnetwork.org/partners/global-directory/international-center-for-law-economics",
    "lat": "45.523451",
    "lon": "-122.676207"
  },
  {
    "institution": "atlas",
    "org_name": "JAMES G. MARTIN CENTER FOR ACADEMIC RENEWAL",
    "region": "North America",
    "location": "Raleigh, NC",
    "city": "Raleigh",
    "state_province": "NC",
    "country": "",
    "website": "https://web.archive.org/web/20210108014853/http://www.jamesgmartin.center/",
    "sourcewatch_page_url": "https://web.archive.org/web/20210108014853/https://www.atlasnetwork.org/partners/global-directory/james-g.-martin-center-for-academic-renewal",
    "lat": "35.7796",
    "lon": "-78.6382"
  },
  {
    "institution": "atlas",
    "org_name": "JAMES MADISON INSTITUTE",
    "region": "North America",
    "location": "Tallahassee, FL",
    "city": "Tallahassee",
    "state_province": "FL",
    "country": "",
    "website": "https://web.archive.org/web/20210108014853/http://www.jamesmadison.org/",
    "sourcewatch_page_url": "https://web.archive.org/web/20210108014853/https://www.atlasnetwork.org/partners/global-directory/james-madison-institute",
    "lat": "30.4383",
    "lon": "-84.2807"
  },
  {
    "institution": "spn",
    "org_name": "James Madison Institute",
    "region": "North America",
    "location": "",
    "city": "",
    "state_province": "James Madison Institute",
    "country": "",
    "website": "http://www.jamesmadison.org",
    "sourcewatch_page_url": "https://www.sourcewatch.org/index.php?title=James_Madison_Institute",
    "lat": "",
    "lon": ""
  },
  {
    "institution": "atlas",
    "org_name": "JOHN LOCKE FOUNDATION",
    "region": "North America",
    "location": "Raleigh, NC",
    "city": "Raleigh",
    "state_province": "NC",
    "country": "",
    "website": "https://web.archive.org/web/20210108014853/http://www.johnlocke.org/",
    "sourcewatch_page_url": "https://web.archive.org/web/20210108014853/https://www.atlasnetwork.org/partners/global-directory/john-locke-foundation",
    "lat": "35.7796",
    "lon": "-78.6382"
  },
  {
    "institution": "atlas",
    "org_name": "JOHN LOCKE FOUNDATION",
    "region": "North America",
    "location": "Charlotte, NC, USA",
    "city": "",
    "state_province": "NC",
    "country": "",
    "website": "http://www.johnlocke.org/",
    "sourcewatch_page_url": "https://www.sourcewatch.org/index.php?title=John_Locke_Foundation",
    "lat": "35.2271",
    "lon": "-80.8431"
  },
  {
    "institution": "atlas",
    "org_name": "JUNIOR ACHIEVEMENT - ROCKY MOUNTAIN",
    "region": "North America",
    "location": "Arvada, CO",
    "city": "Arvada",
    "state_province": "CO",
    "country": "",
    "website": "https://web.archive.org/web/20210108014853/http://www.jacolorado.org/",
    "sourcewatch_page_url": "https://web.archive.org/web/20210108014853/https://www.atlasnetwork.org/partners/global-directory/junior-achievement-rocky-mountain",
    "lat": "39.8028",
    "lon": "-105.0875"
  },
  {
    "institution": "atlas",
    "org_name": "JUST ADD FIREWATER",
    "region": "North America",
    "location": "Los Angles, CA",
    "city": "Los Angles",
    "state_province": "CA",
    "country": "",
    "website": "https://web.archive.org/web/20210108014853/http://www.justaddfirewater.com/",
    "sourcewatch_page_url": "https://web.archive.org/web/20210108014853/https://www.atlasnetwork.org/partners/global-directory/just-add-firewater",
    "lat": "34.0522",
    "lon": "-118.2437"
  },
  {
    "institution": "atlas",
    "org_name": "KANSAS POLICY INSTITUTE",
    "region": "North America",
    "location": "Witchita, KS",
    "city": "Witchita",
    "state_province": "KS",
    "country": "",
    "website": "https://web.archive.org/web/20210108014853/http://www.kansaspolicy.org/",
    "sourcewatch_page_url": "https://web.archive.org/web/20210108014853/https://www.atlasnetwork.org/partners/global-directory/kansas-policy-institute",
    "lat": "37.6872",
    "lon": "-97.3301"
  },
  {
    "institution": "atlas",
    "org_name": "KANSAS POLICY INSTITUTE",
    "region": "North America",
    "location": "Wichita, KS, USA",
    "city": "Witchita",
    "state_province": "KS",
    "country": "",
    "website": "http://www.kansaspolicy.org",
    "sourcewatch_page_url": "https://www.sourcewatch.org/index.php?title=Kansas_Policy_Institute",
    "lat": "37.6872",
    "lon": "-97.3301"
  },
  {
    "institution": "atlas",
    "org_name": "LADIES OF LIBERTY ALLIANCE",
    "region": "North America",
    "location": "Washington, DC",
    "city": "Washington",
    "state_province": "DC",
    "country": "",
    "website": "https://web.archive.org/web/20210108014853/http://ladiesofliberty.org/",
    "sourcewatch_page_url": "https://web.archive.org/web/20210108014853/https://www.atlasnetwork.org/partners/global-directory/ladies-of-liberty-alliance",
    "lat": "38.89511",
    "lon": "-77.03637"
  },
  {
    "institution": "atlas",
    "org_name": "LAW AND ECONOMICS CENTER AT GEORGE MASON UNIVERSITY",
    "region": "North America",
    "location": "Arlington, VA",
    "city": "Arlington",
    "state_province": "VA",
    "country": "",
    "website": "https://web.archive.org/web/20210108014853/http://masonlec.org/",
    "sourcewatch_page_url": "https://web.archive.org/web/20210108014853/https://www.atlasnetwork.org/partners/global-directory/law-and-economics-center-at-george-mason-university",
    "lat": "38.8833",
    "lon": "-77.1068"
  },
  {
    "institution": "atlas",
    "org_name": "LET GROW",
    "region": "North America",
    "location": "New York, NY",
    "city": "New York",
    "state_province": "NY",
    "country": "",
    "website": "https://web.archive.org/web/20210108014853/http://www.letgrow.org/",
    "sourcewatch_page_url": "https://web.archive.org/web/20210108014853/https://www.atlasnetwork.org/partners/global-directory/let-grow",
    "lat": "40.7128",
    "lon": "-74.006"
  },
  {
    "institution": "atlas",
    "org_name": "LIBERTAS INSTITUTE",
    "region": "North America",
    "location": "Lehi, UT",
    "city": "Lehi",
    "state_province": "UT",
    "country": "",
    "website": "https://web.archive.org/web/20210108014853/http://libertasutah.org/",
    "sourcewatch_page_url": "https://web.archive.org/web/20210108014853/https://www.atlasnetwork.org/partners/global-directory/libertas-institute",
    "lat": "40.3925",
    "lon": "-111.8508"
  },
  {
    "institution": "spn",
    "org_name": "Libertas Institute",
    "region": "North America",
    "location": "Salt Lake City, Utah, USA",
    "city": "",
    "state_province": "Utah",
    "country": "",
    "website": "http://libertasutah.org",
    "sourcewatch_page_url": "https://www.sourcewatch.org/index.php?title=Libertas_Institute",
    "lat": "40.7608",
    "lon": "-111.891"
  },
  {
    "institution": "atlas",
    "org_name": "LIBERTY FUND",
    "region": "North America",
    "location": "Indianapolis, IN",
    "city": "Indianapolis",
    "state_province": "IN",
    "country": "",
    "website": "https://web.archive.org/web/20210108014853/http://www.libertyfund.org/",
    "sourcewatch_page_url": "https://web.archive.org/web/20210108014853/https://www.atlasnetwork.org/partners/global-directory/liberty-fund",
    "lat": "39.7684",
    "lon": "-86.1581"
  },
  {
    "institution": "atlas",
    "org_name": "LIBERTY INTERNATIONAL",
    "region": "North America",
    "location": "San Francisco, CA",
    "city": "San Francisco",
    "state_province": "CA",
    "country": "",
    "website": "https://web.archive.org/web/20210108014853/http://liberty-intl.org/",
    "sourcewatch_page_url": "https://web.archive.org/web/20210108014853/https://www.atlasnetwork.org/partners/global-directory/international-society-for-individual-liberty",
    "lat": "37.7749",
    "lon": "-122.4194"
  },
  {
    "institution": "atlas",
    "org_name": "LINCOLN NETWORK",
    "region": "North America",
    "location": "San Francisco, CA",
    "city": "San Francisco",
    "state_province": "CA",
    "country": "",
    "website": "https://web.archive.org/web/20210108014853/http://joinlincoln.org/",
    "sourcewatch_page_url": "https://web.archive.org/web/20210108014853/https://www.atlasnetwork.org/partners/global-directory/lincoln-network",
    "lat": "37.7749",
    "lon": "-122.4194"
  },
  {
    "institution": "atlas",
    "org_name": "LINCOLN NETWORK",
    "region": "North America",
    "location": "San Jose, CA",
    "city": "San Jose",
    "state_province": "CA",
    "country": "",
    "website": "https://web.archive.org/web/20190521152925/http://joinlincoln.org/",
    "sourcewatch_page_url": "https://web.archive.org/web/20190521152925/https://www.atlasnetwork.org/partners/global-directory/lincoln-network",
    "lat": "37.3382",
    "lon": "-121.8863"
  },
  {
    "institution": "atlas",
    "org_name": "MACKINAC CENTER FOR PUBLIC POLICY",
    "region": "North America",
    "location": "Midland, MI",
    "city": "Midland",
    "state_province": "MI",
    "country": "",
    "website": "https://web.archive.org/web/20210108014853/http://www.mackinac.org/",
    "sourcewatch_page_url": "https://web.archive.org/web/20210108014853/https://www.atlasnetwork.org/partners/global-directory/mackinac-center-for-public-policy",
    "lat": "43.6156",
    "lon": "-84.2478"
  },
  {
    "institution": "spn",
    "org_name": "Mackinac Center for Public Policy",
    "region": "North America",
    "location": "Midland, Michigan, USA",
    "city": "",
    "state_province": "Michigan",
    "country": "",
    "website": "http://www.mackinac.org",
    "sourcewatch_page_url": "https://www.sourcewatch.org/index.php?title=Mackinac_Center_for_Public_Policy",
    "lat": "43.6156",
    "lon": "-84.2478"
  },
  {
    "institution": "atlas",
    "org_name": "MADISON LIBERTY INSTITUTE",
    "region": "North America",
    "location": "Rexburg, ID",
    "city": "Rexburg",
    "state_province": "ID",
    "country": "",
    "website": "https://web.archive.org/web/20210108014853/http://www.madisonliberty.org/",
    "sourcewatch_page_url": "https://web.archive.org/web/20210108014853/https://www.atlasnetwork.org/partners/global-directory/madison-liberty-institute",
    "lat": "43.8265",
    "lon": "-111.7857"
  },
  {
    "institution": "atlas",
    "org_name": "MAINE POLICY INSTITUTE",
    "region": "North America",
    "location": "Portland, ME",
    "city": "Portland",
    "state_province": "ME",
    "country": "",
    "website": "https://web.archive.org/web/20210108014853/http://www.mainepolicy.org/",
    "sourcewatch_page_url": "https://web.archive.org/web/20210108014853/https://www.atlasnetwork.org/partners/global-directory/maine-policy-institute",
    "lat": "43.6615",
    "lon": "-70.2553"
  },
  {
    "institution": "spn",
    "org_name": "Maine Policy Institute",
    "region": "North America",
    "location": "Augusta, Maine, USA",
    "city": "",
    "state_province": "Maine",
    "country": "",
    "website": "http://www.mainepolicy.org",
    "sourcewatch_page_url": "https://www.sourcewatch.org/index.php?title=Maine_Policy_Institute",
    "lat": "44.3106",
    "lon": "-69.7795"
  },
  {
    "institution": "atlas",
    "org_name": "MANHATTAN INSTITUTE FOR POLICY RESEARCH",
    "region": "North America",
    "location": "New York, NY",
    "city": "New York",
    "state_province": "NY",
    "country": "",
    "website": "https://web.archive.org/web/20210108014853/http://www.manhattan-institute.org/",
    "sourcewatch_page_url": "https://web.archive.org/web/20210108014853/https://www.atlasnetwork.org/partners/global-directory/manhattan-institute-for-policy-research",
    "lat": "40.7128",
    "lon": "-74.006"
  },
  {
    "institution": "atlas",
    "org_name": "MANUEL H. JOHNSON CENTER FOR POLITICAL ECONOMY",
    "region": "North America",
    "location": "Troy, AL",
    "city": "Troy",
    "state_province": "AL",
    "country": "",
    "website": "https://web.archive.org/web/20210108014853/http://www.troy.edu/academics/colleges-schools/business/johnson-center/about/index.html",
    "sourcewatch_page_url": "https://web.archive.org/web/20210108014853/https://www.atlasnetwork.org/partners/global-directory/manuel-h.-johnson-center-for-political-economy",
    "lat": "31.8404",
    "lon": "-85.9641"
  },
  {
    "institution": "atlas",
    "org_name": "MARYLAND PUBLIC POLICY INSTITUTE",
    "region": "North America",
    "location": "Germantown, MD",
    "city": "Germantown",
    "state_province": "MD",
    "country": "",
    "website": "https://web.archive.org/web/20210108014853/http://www.mdpolicy.org/",
    "sourcewatch_page_url": "https://web.archive.org/web/20210108014853/https://www.atlasnetwork.org/partners/global-directory/maryland-public-policy-institute",
    "lat": "39.1732",
    "lon": "-77.2719"
  },
  {
    "institution": "atlas",
    "org_name": "MARYLAND PUBLIC POLICY INSTITUTE",
    "region": "North America",
    "location": "Annapolis, MD, USA",
    "city": "",
    "state_province": "MD",
    "country": "",
    "website": "http://www.mdpolicy.org/",
    "sourcewatch_page_url": "",
    "lat": "38.9784",
    "lon": "-76.4922"
  },
  {
    "institution": "atlas",
    "org_name": "MERCATUS CENTER AT GEORGE MASON UNIVERSITY",
    "region": "North America",
    "location": "Arlington, VA",
    "city": "Arlington",
    "state_province": "VA",
    "country": "",
    "website": "https://web.archive.org/web/20210108014853/http://www.mercatus.org/",
    "sourcewatch_page_url": "https://web.archive.org/web/20210108014853/https://www.atlasnetwork.org/partners/global-directory/mercatus-center-at-george-mason-university",
    "lat": "38.8833",
    "lon": "-77.1068"
  },
  {
    "institution": "atlas",
    "org_name": "MISSISSIPPI CENTER FOR PUBLIC POLICY",
    "region": "North America",
    "location": "Jackson, MS",
    "city": "Jackson",
    "state_province": "MS",
    "country": "",
    "website": "https://web.archive.org/web/20210108014853/http://www.mspolicy.org/",
    "sourcewatch_page_url": "https://web.archive.org/web/20210108014853/https://www.atlasnetwork.org/partners/global-directory/mississippi-center-for-public-policy",
    "lat": "32.2988",
    "lon": "-90.1848"
  },
  {
    "institution": "spn",
    "org_name": "Mississippi Center for Public Policy",
    "region": "North America",
    "location": "Jackson, Mississippi, USA",
    "city": "",
    "state_province": "Mississippi Center for Public Policy",
    "country": "",
    "website": "http://www.mspolicy.org",
    "sourcewatch_page_url": "https://www.sourcewatch.org/index.php?title=Mississippi_Center_for_Public_Policy",
    "lat": "32.2988",
    "lon": "-90.1848"
  },
  {
    "institution": "atlas",
    "org_name": "MONT PELERIN SOCIETY",
    "region": "North America",
    "location": "Alexandria, VA",
    "city": "Alexandria",
    "state_province": "VA",
    "country": "",
    "website": "https://web.archive.org/web/20210108014853/http://www.montpelerin.org/",
    "sourcewatch_page_url": "https://web.archive.org/web/20210108014853/https://www.atlasnetwork.org/partners/global-directory/mont-pelerin-society",
    "lat": "38.8048",
    "lon": "-77.0469"
  },
  {
    "institution": "atlas",
    "org_name": "MONT PELERIN SOCIETY",
    "region": "North America",
    "location": "Arlington, VA, USA",
    "city": "",
    "state_province": "VA",
    "country": "",
    "website": "http://www.montpelerin.org/",
    "sourcewatch_page_url": "",
    "lat": "38.8833",
    "lon": "-77.1"
  },
  {
    "institution": "atlas",
    "org_name": "MOUNTAIN STATES LEGAL FOUNDATION",
    "region": "North America",
    "location": "Lakewood, CO",
    "city": "Lakewood",
    "state_province": "CO",
    "country": "",
    "website": "https://web.archive.org/web/20210108014853/http://www.mountainstateslegal.org/",
    "sourcewatch_page_url": "https://web.archive.org/web/20210108014853/https://www.atlasnetwork.org/partners/global-directory/mountain-states-legal-foundation",
    "lat": "39.6139",
    "lon": "-105.0814"
  },
  {
    "institution": "atlas",
    "org_name": "MOVING PICTURE INSTITUTE",
    "region": "North America",
    "location": "New York, NY",
    "city": "New York",
    "state_province": "NY",
    "country": "",
    "website": "https://web.archive.org/web/20210108014853/http://www.thempi.org/",
    "sourcewatch_page_url": "https://web.archive.org/web/20210108014853/https://www.atlasnetwork.org/partners/global-directory/moving-picture-institute",
    "lat": "40.7128",
    "lon": "-74.006"
  },
  {
    "institution": "atlas",
    "org_name": "MUSIC FOR LIBERTY",
    "region": "North America",
    "location": "Van Nuys, CA",
    "city": "Van Nuys",
    "state_province": "CA",
    "country": "",
    "website": "https://web.archive.org/web/20210108014853/http://www.musicforliberty.com/",
    "sourcewatch_page_url": "https://web.archive.org/web/20210108014853/https://www.atlasnetwork.org/partners/global-directory/music-for-liberty",
    "lat": "34.1894",
    "lon": "-118.4515"
  },
  {
    "institution": "atlas",
    "org_name": "MUSIC FOR LIBERTY",
    "region": "North America",
    "location": "Valley Village, CA",
    "city": "Valley Village",
    "state_province": "",
    "country": "",
    "website": "https://web.archive.org/web/20190521152925/http://www.musicforliberty.com/",
    "sourcewatch_page_url": "https://web.archive.org/web/20190521152925/https://www.atlasnetwork.org/partners/global-directory/music-for-liberty",
    "lat": "34.1625",
    "lon": "-118.3965"
  },
  {
    "institution": "atlas",
    "org_name": "NATIONAL REVIEW INSTITUTE",
    "region": "North America",
    "location": "New York City, NY",
    "city": "New York City",
    "state_province": "NY",
    "country": "",
    "website": "https://web.archive.org/web/20210108014853/http://nrinstitute.org/",
    "sourcewatch_page_url": "https://web.archive.org/web/20210108014853/https://www.atlasnetwork.org/partners/global-directory/national-review-institute",
    "lat": "40.7128",
    "lon": "-74.006"
  },
  {
    "institution": "atlas",
    "org_name": "NATIONAL REVIEW INSTITUTE",
    "region": "North America",
    "location": "Washington, DC, USA",
    "city": "Washington",
    "state_province": "DC",
    "country": "",
    "website": "http://nrinstitute.org",
    "sourcewatch_page_url": "",
    "lat": "38.89511",
    "lon": "-77.03637"
  },
  {
    "institution": "atlas",
    "org_name": "NATIONAL TAXPAYERS UNION",
    "region": "North America",
    "location": "Washington, DC",
    "city": "Washington",
    "state_province": "DC",
    "country": "",
    "website": "https://web.archive.org/web/20210108014853/http://www.ntu.org/",
    "sourcewatch_page_url": "https://web.archive.org/web/20210108014853/https://www.atlasnetwork.org/partners/global-directory/national-taxpayers-union",
    "lat": "38.89511",
    "lon": "-77.03637"
  },
  {
    "institution": "atlas",
    "org_name": "NATIONAL TAXPAYERS UNION",
    "region": "North America",
    "location": "Alexandria, VA",
    "city": "Alexandria",
    "state_province": "VA",
    "country": "",
    "website": "https://web.archive.org/web/20190521152925/http://www.ntu.org/",
    "sourcewatch_page_url": "https://web.archive.org/web/20190521152925/https://www.atlasnetwork.org/partners/global-directory/national-taxpayers-union",
    "lat": "38.8048",
    "lon": "-77.0469"
  },
  {
    "institution": "atlas",
    "org_name": "NATIONAL TAXPAYERS UNION",
    "region": "North America",
    "location": "Arlington, VA, USA",
    "city": "",
    "state_province": "VA",
    "country": "",
    "website": "http://www.ntu.org/",
    "sourcewatch_page_url": "",
    "lat": "38.8833",
    "lon": "-77.1"
  },
  {
    "institution": "atlas",
    "org_name": "NEVADA POLICY RESEARCH INSTITUTE",
    "region": "North America",
    "location": "Las Vegas, NV",
    "city": "Las Vegas",
    "state_province": "NV",
    "country": "",
    "website": "https://web.archive.org/web/20210108014853/http://www.npri.org/",
    "sourcewatch_page_url": "https://web.archive.org/web/20210108014853/https://www.atlasnetwork.org/partners/global-directory/nevada-policy-research-institute",
    "lat": "36.1699",
    "lon": "-115.1398"
  },
  {
    "institution": "spn",
    "org_name": "Nevada Policy Research Institute",
    "region": "North America",
    "location": "Las Vegas, Nevada, USA",
    "city": "",
    "state_province": "Nevada",
    "country": "",
    "website": "http://www.npri.org",
    "sourcewatch_page_url": "https://www.sourcewatch.org/index.php?title=Nevada_Policy_Research_Institute",
    "lat": "36.1699",
    "lon": "-115.1398"
  },
  {
    "institution": "atlas",
    "org_name": "NEW CIVIL LIBERTIES ALLIANCE",
    "region": "North America",
    "location": "Washington, DC",
    "city": "Washington",
    "state_province": "DC",
    "country": "",
    "website": "https://web.archive.org/web/20210108014853/http://www.nclalegal.org/",
    "sourcewatch_page_url": "https://web.archive.org/web/20210108014853/https://www.atlasnetwork.org/partners/global-directory/new-civil-liberties-alliance",
    "lat": "38.89511",
    "lon": "-77.03637"
  },
  {
    "institution": "atlas",
    "org_name": "PACIFIC LEGAL FOUNDATION",
    "region": "North America",
    "location": "Arlington, VA",
    "city": "Arlington",
    "state_province": "VA",
    "country": "",
    "website": "https://web.archive.org/web/20210108014853/http://www.pacificlegal.org/",
    "sourcewatch_page_url": "https://web.archive.org/web/20210108014853/https://www.atlasnetwork.org/partners/global-directory/pacific-legal-foundation",
    "lat": "38.8833",
    "lon": "-77.1068"
  },
  {
    "institution": "atlas",
    "org_name": "PACIFIC LEGAL FOUNDATION",
    "region": "North America",
    "location": "Sacramento, CA",
    "city": "Sacramento",
    "state_province": "CA",
    "country": "",
    "website": "https://web.archive.org/web/20190521152925/http://www.pacificlegal.org/",
    "sourcewatch_page_url": "https://web.archive.org/web/20190521152925/https://www.atlasnetwork.org/partners/global-directory/pacific-legal-foundation",
    "lat": "38.5816",
    "lon": "-121.4944"
  },
  {
    "institution": "atlas",
    "org_name": "PACIFIC RESEARCH INSTITUTE",
    "region": "North America",
    "location": "San Francisco, CA",
    "city": "San Francisco",
    "state_province": "CA",
    "country": "",
    "website": "https://web.archive.org/web/20210108014853/http://www.pacificresearch.org/",
    "sourcewatch_page_url": "https://web.archive.org/web/20210108014853/https://www.atlasnetwork.org/partners/global-directory/pacific-research-institute",
    "lat": "37.7749",
    "lon": "-122.4194"
  },
  {
    "institution": "spn",
    "org_name": "Pacific Research Institute",
    "region": "North America",
    "location": "",
    "city": "",
    "state_province": "Pacific Research Institute",
    "country": "",
    "website": "http://www.pacificresearch.org",
    "sourcewatch_page_url": "https://www.sourcewatch.org/index.php?title=Pacific_Research_Institute",
    "lat": "",
    "lon": ""
  },
  {
    "institution": "atlas",
    "org_name": "PALMETTO PROMISE INSTITUTE",
    "region": "North America",
    "location": "Columbia, SC",
    "city": "Columbia",
    "state_province": "SC",
    "country": "",
    "website": "https://web.archive.org/web/20210108014853/http://palmettopromise.org/",
    "sourcewatch_page_url": "https://web.archive.org/web/20210108014853/https://www.atlasnetwork.org/partners/global-directory/palmetto-promise-institute",
    "lat": "34.0007",
    "lon": "-81.0348"
  },
  {
    "institution": "spn",
    "org_name": "Palmetto Promise Institute",
    "region": "North America",
    "location": "Columbia, South Carolina, USA",
    "city": "",
    "state_province": "South Carolina",
    "country": "",
    "website": "https://palmettopromise.org",
    "sourcewatch_page_url": "https://www.sourcewatch.org/index.php?title=Palmetto_Promise_Institute",
    "lat": "34.0007",
    "lon": "-81.0348"
  },
  {
    "institution": "atlas",
    "org_name": "PHILADELPHIA SOCIETY",
    "region": "North America",
    "location": "Jerome, MI",
    "city": "Jerome",
    "state_province": "MI",
    "country": "",
    "website": "https://web.archive.org/web/20210108014853/http://www.phillysoc.org/",
    "sourcewatch_page_url": "https://web.archive.org/web/20210108014853/https://www.atlasnetwork.org/partners/global-directory/philadelphia-society",
    "lat": "42.1015",
    "lon": "-84.5881"
  },
  {
    "institution": "atlas",
    "org_name": "PHILADELPHIA SOCIETY",
    "region": "North America",
    "location": "Philadelphia, MI, USA",
    "city": "",
    "state_province": "MI",
    "country": "",
    "website": "http://www.phillysoc.org/",
    "sourcewatch_page_url": "",
    "lat": "43.0003",
    "lon": "-83.0003"
  },
  {
    "institution": "atlas",
    "org_name": "PHILANTHROPY ROUNDTABLE",
    "region": "North America",
    "location": "Washington, DC",
    "city": "Washington",
    "state_province": "DC",
    "country": "",
    "website": "https://web.archive.org/web/20210108014853/http://www.philanthropyroundtable.org/",
    "sourcewatch_page_url": "https://web.archive.org/web/20210108014853/https://www.atlasnetwork.org/partners/global-directory/philanthropy-roundtable",
    "lat": "38.89511",
    "lon": "-77.03637"
  },
  {
    "institution": "atlas",
    "org_name": "PIONEER INSTITUTE FOR PUBLIC POLICY RESEARCH",
    "region": "North America",
    "location": "Boston, MA",
    "city": "Boston",
    "state_province": "MA",
    "country": "",
    "website": "https://web.archive.org/web/20210108014853/http://www.pioneerinstitute.org/",
    "sourcewatch_page_url": "https://web.archive.org/web/20210108014853/https://www.atlasnetwork.org/partners/global-directory/pioneer-institute-for-public-policy-research",
    "lat": "42.3601",
    "lon": "-71.0589"
  },
  {
    "institution": "atlas",
    "org_name": "PLAN PA\u00cdS",
    "region": "North America",
    "location": "Arlington, VA",
    "city": "Arlington",
    "state_province": "VA",
    "country": "",
    "website": "https://web.archive.org/web/20210108014853/http://www.planpais.com/",
    "sourcewatch_page_url": "https://web.archive.org/web/20210108014853/https://www.atlasnetwork.org/partners/global-directory/plan-pais",
    "lat": "38.8833",
    "lon": "-77.1068"
  },
  {
    "institution": "atlas",
    "org_name": "PLATTE INSTITUTE",
    "region": "North America",
    "location": "Omaha, NE",
    "city": "Omaha",
    "state_province": "NE",
    "country": "",
    "website": "https://web.archive.org/web/20210108014853/http://www.platteinstitute.org/",
    "sourcewatch_page_url": "https://web.archive.org/web/20210108014853/https://www.atlasnetwork.org/partners/global-directory/platte-institute",
    "lat": "41.2565",
    "lon": "-95.9345"
  },
  {
    "institution": "atlas",
    "org_name": "PROPERTY AND ENVIRONMENT RESEARCH CENTER (PERC)",
    "region": "North America",
    "location": "Bozeman, MT",
    "city": "Bozeman",
    "state_province": "MT",
    "country": "",
    "website": "https://web.archive.org/web/20210108014853/http://www.perc.org/",
    "sourcewatch_page_url": "https://web.archive.org/web/20210108014853/https://www.atlasnetwork.org/partners/global-directory/property-and-environment-research-center",
    "lat": "45.676",
    "lon": "-111.0429"
  },
  {
    "institution": "atlas",
    "org_name": "R STREET INSTITUTE",
    "region": "North America",
    "location": "Washington, DC",
    "city": "Washington",
    "state_province": "DC",
    "country": "",
    "website": "https://web.archive.org/web/20210108014853/http://www.rstreet.org/",
    "sourcewatch_page_url": "https://web.archive.org/web/20210108014853/https://www.atlasnetwork.org/partners/global-directory/r-street-institute",
    "lat": "38.89511",
    "lon": "-77.03637"
  },
  {
    "institution": "atlas",
    "org_name": "REASON FOUNDATION",
    "region": "North America",
    "location": "Los Angeles, CA",
    "city": "Los Angeles",
    "state_province": "CA",
    "country": "",
    "website": "https://web.archive.org/web/20210108014853/http://www.reason.org/",
    "sourcewatch_page_url": "https://web.archive.org/web/20210108014853/https://www.atlasnetwork.org/partners/global-directory/reason-foundation",
    "lat": "34.0522",
    "lon": "-118.2437"
  },
  {
    "institution": "atlas",
    "org_name": "SHOW-ME INSTITUTE",
    "region": "North America",
    "location": "Saint Louis, MO",
    "city": "Saint Louis",
    "state_province": "MO",
    "country": "",
    "website": "https://web.archive.org/web/20210108014853/http://www.showmeinstitute.org/",
    "sourcewatch_page_url": "https://web.archive.org/web/20210108014853/https://www.atlasnetwork.org/partners/global-directory/show-me-institute",
    "lat": "38.627",
    "lon": "-90.199"
  },
  {
    "institution": "atlas",
    "org_name": "SHOW-ME INSTITUTE",
    "region": "North America",
    "location": "Columbia, MO, USA",
    "city": "",
    "state_province": "MO",
    "country": "",
    "website": "http://www.showmeinstitute.org/",
    "sourcewatch_page_url": "https://www.sourcewatch.org/index.php?title=Show-Me_Institute",
    "lat": "38.9517",
    "lon": "-92.3341"
  },
  {
    "institution": "atlas",
    "org_name": "SMOCK MEDIA",
    "region": "North America",
    "location": "Venice, CA",
    "city": "Venice",
    "state_province": "CA",
    "country": "",
    "website": "https://web.archive.org/web/20210108014853/http://smockmedia.com/",
    "sourcewatch_page_url": "https://web.archive.org/web/20210108014853/https://www.atlasnetwork.org/partners/global-directory/smock-media",
    "lat": "33.985",
    "lon": "-118.4695"
  },
  {
    "institution": "atlas",
    "org_name": "SPEECH FIRST",
    "region": "North America",
    "location": "Washington, DC",
    "city": "Washington",
    "state_province": "DC",
    "country": "",
    "website": "https://web.archive.org/web/20210108014853/http://www.speechfirst.org/",
    "sourcewatch_page_url": "https://web.archive.org/web/20210108014853/https://www.atlasnetwork.org/partners/global-directory/speech-first",
    "lat": "38.89511",
    "lon": "-77.03637"
  },
  {
    "institution": "atlas",
    "org_name": "STARTUP SOCIETIES FOUNDATION",
    "region": "North America",
    "location": "Salt Lake City, UT",
    "city": "Salt Lake City",
    "state_province": "UT",
    "country": "",
    "website": "https://web.archive.org/web/20210108014853/http://www.startupsocieties.com/",
    "sourcewatch_page_url": "https://web.archive.org/web/20210108014853/https://www.atlasnetwork.org/partners/global-directory/startup-societies-foundation",
    "lat": "40.7608",
    "lon": "-111.891"
  },
  {
    "institution": "atlas",
    "org_name": "STATE POLICY NETWORK",
    "region": "North America",
    "location": "Arlington, VA",
    "city": "Arlington",
    "state_province": "VA",
    "country": "",
    "website": "https://web.archive.org/web/20210108014853/http://www.spn.org/",
    "sourcewatch_page_url": "https://web.archive.org/web/20210108014853/https://www.atlasnetwork.org/partners/global-directory/state-policy-network",
    "lat": "38.8833",
    "lon": "-77.1068"
  },
  {
    "institution": "atlas",
    "org_name": "STATE POLICY NETWORK",
    "region": "North America",
    "location": "City, CA, USA",
    "city": "",
    "state_province": "CA",
    "country": "",
    "website": "http://www.spn.org/",
    "sourcewatch_page_url": "",
    "lat": "36.7783",
    "lon": "-119.4179"
  },
  {
    "institution": "atlas",
    "org_name": "STATE POLICY NETWORK",
    "region": "North America",
    "location": "Richmond, CA USA",
    "city": "Richmond",
    "state_province": "CA",
    "country": "",
    "website": "",
    "sourcewatch_page_url": "https://web.archive.org/web/20040412194223/http://www.atlasusa.org/directory/institute_profile.php?refer=directory&org_id=5",
    "lat": "37.9356",
    "lon": "-122.3478"
  },
  {
    "institution": "atlas",
    "org_name": "STUDENTS FOR LIBERTY",
    "region": "North America",
    "location": "Arlington, VA",
    "city": "Arlington",
    "state_province": "VA",
    "country": "",
    "website": "https://web.archive.org/web/20210108014853/http://www.studentsforliberty.org/",
    "sourcewatch_page_url": "https://web.archive.org/web/20210108014853/https://www.atlasnetwork.org/partners/global-directory/students-for-liberty",
    "lat": "38.8833",
    "lon": "-77.1068"
  },
  {
    "institution": "atlas",
    "org_name": "SUTHERLAND INSTITUTE",
    "region": "North America",
    "location": "Salt Lake City, UT",
    "city": "Salt Lake City",
    "state_province": "UT",
    "country": "",
    "website": "https://web.archive.org/web/20210108014853/http://www.sutherlandinstitute.org/",
    "sourcewatch_page_url": "https://web.archive.org/web/20210108014853/https://www.atlasnetwork.org/partners/global-directory/sutherland-institute",
    "lat": "40.7608",
    "lon": "-111.891"
  },
  {
    "institution": "spn",
    "org_name": "Sutherland Institute",
    "region": "North America",
    "location": "Sutherland Institute, Utah, USA",
    "city": "",
    "state_province": "Sutherland Institute",
    "country": "",
    "website": "http://www.sutherlandinstitute.org",
    "sourcewatch_page_url": "https://www.sourcewatch.org/index.php?title=Sutherland_Institute",
    "lat": "40.7608",
    "lon": "-111.891"
  },
  {
    "institution": "atlas",
    "org_name": "TALIESIN NEXUS",
    "region": "North America",
    "location": "Los Angeles, CA",
    "city": "Los Angeles",
    "state_province": "CA",
    "country": "",
    "website": "https://web.archive.org/web/20210108014853/http://www.talnexus.com/",
    "sourcewatch_page_url": "https://web.archive.org/web/20210108014853/https://www.atlasnetwork.org/partners/global-directory/taliesin-nexus",
    "lat": "34.0522",
    "lon": "-118.2437"
  },
  {
    "institution": "atlas",
    "org_name": "TALIESIN NEXUS",
    "region": "North America",
    "location": "City, CA, USA",
    "city": "",
    "state_province": "CA",
    "country": "",
    "website": "www.talnexus.com",
    "sourcewatch_page_url": "",
    "lat": "36.7783",
    "lon": "-119.4179"
  },
  {
    "institution": "atlas",
    "org_name": "TAX FOUNDATION",
    "region": "North America",
    "location": "Washington, DC",
    "city": "Washington",
    "state_province": "DC",
    "country": "",
    "website": "https://web.archive.org/web/20210108014853/http://www.taxfoundation.org/",
    "sourcewatch_page_url": "https://web.archive.org/web/20210108014853/https://www.atlasnetwork.org/partners/global-directory/tax-foundation",
    "lat": "38.89511",
    "lon": "-77.03637"
  },
  {
    "institution": "atlas",
    "org_name": "TAXPAYERS PROTECTION ALLIANCE",
    "region": "North America",
    "location": "Washington, DC",
    "city": "Washington",
    "state_province": "DC",
    "country": "",
    "website": "https://web.archive.org/web/20210108014853/http://www.protectingtaxpayers.org/",
    "sourcewatch_page_url": "https://web.archive.org/web/20210108014853/https://www.atlasnetwork.org/partners/global-directory/taxpayers-protection-alliance",
    "lat": "38.89511",
    "lon": "-77.03637"
  },
  {
    "institution": "atlas",
    "org_name": "TEXAS PUBLIC POLICY FOUNDATION",
    "region": "North America",
    "location": "Austin, TX",
    "city": "Austin",
    "state_province": "TX",
    "country": "",
    "website": "https://web.archive.org/web/20210108014853/http://www.texaspolicy.com/",
    "sourcewatch_page_url": "https://web.archive.org/web/20210108014853/https://www.atlasnetwork.org/partners/global-directory/texas-public-policy-foundation",
    "lat": "30.2672",
    "lon": "-97.7431"
  },
  {
    "institution": "atlas",
    "org_name": "TEXAS PUBLIC POLICY FOUNDATION",
    "region": "North America",
    "location": "Austin, Texas, USA",
    "city": "",
    "state_province": "TX",
    "country": "",
    "website": "http://www.texaspolicy.com/",
    "sourcewatch_page_url": "https://www.sourcewatch.org/index.php?title=Texas_Public_Policy_Foundation",
    "lat": "30.2672",
    "lon": "-97.7431"
  },
  {
    "institution": "atlas",
    "org_name": "TEXAS PUBLIC POLICY FOUNDATION",
    "region": "North America",
    "location": "San Antonio, TX USA",
    "city": "San Antonio",
    "state_province": "TX",
    "country": "",
    "website": "",
    "sourcewatch_page_url": "https://web.archive.org/web/20040412192938/http://www.atlasusa.org/directory/institute_profile.php?refer=directory&org_id=372",
    "lat": "29.4241",
    "lon": "-98.4936"
  },
  {
    "institution": "atlas",
    "org_name": "THE ATLAS SOCIETY",
    "region": "North America",
    "location": "Kingwood, TX",
    "city": "Kingwood",
    "state_province": "TX",
    "country": "",
    "website": "https://web.archive.org/web/20210108014853/http://www.atlassociety.org/",
    "sourcewatch_page_url": "https://web.archive.org/web/20210108014853/https://www.atlasnetwork.org/partners/global-directory/atlas-society",
    "lat": "30.0518",
    "lon": "-95.2516"
  },
  {
    "institution": "atlas",
    "org_name": "THE BEACON HILL INSTITUTE",
    "region": "North America",
    "location": "Medway, MA",
    "city": "Medway",
    "state_province": "MA",
    "country": "",
    "website": "https://web.archive.org/web/20210108014853/http://www.beaconhill.org/",
    "sourcewatch_page_url": "https://web.archive.org/web/20210108014853/https://www.atlasnetwork.org/partners/global-directory/beacon-hill-institute",
    "lat": "42.1205",
    "lon": "-71.4332"
  },
  {
    "institution": "atlas",
    "org_name": "THE BUCKEYE INSTITUTE",
    "region": "North America",
    "location": "Columbus, OH",
    "city": "Columbus",
    "state_province": "OH",
    "country": "",
    "website": "https://web.archive.org/web/20210108014853/http://www.buckeyeinstitute.org/",
    "sourcewatch_page_url": "https://web.archive.org/web/20210108014853/https://www.atlasnetwork.org/partners/global-directory/the-buckeye-institute",
    "lat": "39.9612",
    "lon": "-82.9988"
  },
  {
    "institution": "spn",
    "org_name": "The Buckeye Institute",
    "region": "North America",
    "location": "Columbus, Ohio, USA",
    "city": "",
    "state_province": "Ohio",
    "country": "",
    "website": "http://www.BuckeyeInstitute.org",
    "sourcewatch_page_url": "https://www.sourcewatch.org/index.php?title=The_Buckeye_Institute",
    "lat": "39.9612",
    "lon": "-82.9988"
  },
  {
    "institution": "atlas",
    "org_name": "THE CONSERVATION COALITION",
    "region": "North America",
    "location": "Appleton, WI",
    "city": "Appleton",
    "state_province": "WI",
    "country": "",
    "website": "https://web.archive.org/web/20210108014853/http://www.tcc.eco/",
    "sourcewatch_page_url": "https://web.archive.org/web/20210108014853/https://www.atlasnetwork.org/partners/global-directory/american-conservation-coalition-campus",
    "lat": "44.2619",
    "lon": "-88.4016"
  },